,road,id,model_type,name,lat,lon,length,condition
0,N1,100001,source,Start of Road  after Jatrabari Flyover infront of filling station.,23.7060278,90.443333,0.0,None
1,N1,100002,link,Link,23.702383230000002,90.45109703999995,1800.0,None
2,N1,100003,bridge,.,23.69873866,90.4588610799999,11.3,A
3,N1,100004,link,Link,23.70189927628375,90.49103761317559,7176.000000000001,None
4,N1,100005,bridge,Kanch pur Bridge.,23.7050598925675,90.5232141463513,394.23,A
5,N1,100006,link,Link,23.7007299897392,90.529156563228,1566.9999999999984,None
6,N1,100007,bridge,KATCHPUR BOX CULVERT,23.6964000869109,90.5350989801047,8.0,B
7,N1,100008,link,Link,23.695395350523498,90.5363365287958,337.00000000000153,None
8,N1,100009,bridge,NOYAPARA CULVERT,23.6943906141361,90.5375740774869,6.3,A
9,N1,100010,link,Link,23.694346500525953,90.53764072472475,16.99999999999946,None
10,N1,100011,bridge,ADUPUR CULVERT,23.6943023869158,90.5377073719626,6.3,A
11,N1,100012,link,Link,23.693331269392452,90.5393128808411,398.99999999999915,None
12,N1,100013,bridge,NAYABARI KASPUR BOX CULVERT,23.6923601518691,90.5409183897196,8.3,A
13,N1,100014,link,Link,23.6916360416921,90.54319044273855,512.0000000000005,None
14,N1,100015,bridge,NAYABARI BOX CULVERT,23.6909119315151,90.5454624957575,10.6,B
15,N1,100016,link,Link,23.68966212876775,90.54701051241955,431.0000000000009,None
16,N1,100017,bridge,KHAS PARA BOX CULVERT,23.6884123260204,90.5485585290816,9.3,A
17,N1,100018,link,Link,23.6883660295918,90.5486041683673,13.999999999999346,None
18,N1,100019,bridge,DAWAN BAG BOX CULVERT,23.6883197331632,90.548649807653,6.1,A
19,N1,100020,link,Link,23.686951380095103,90.54992889436701,407.0,None
20,N1,100021,bridge,Madanpur Bridge.(L),23.685583027027,90.551207981081,27.5,A
21,N1,100022,link,Link,23.681693263513502,90.55351370804046,913.9999999999997,None
22,N1,100023,bridge,KAWTALA BOX CULVERT,23.6778035,90.5558194349999,11.9,A
23,N1,100024,link,Link,23.67055628480745,90.55983821489846,1891.0,None
24,N1,100025,bridge,MALIBAG BOX CULVERT,23.6633090696149,90.563856994797,5.55,B
25,N1,100026,link,Link,23.65886738736425,90.5702936098985,1669.0000000000005,None
26,N1,100027,bridge,Langalbandh Bridge.,23.6544257051136,90.576730225,159.52,C
27,N1,100028,link,Link,23.6541989825568,90.5770703225,88.00000000000097,None
28,N1,100029,bridge,Darikandi Bridge (R),23.65397226,90.57741042,20.45,A
29,N1,100030,link,Link,23.6518633296774,90.58097971427415,870.9999999999986,None
30,N1,100031,bridge,Sonakhal Bridge(L),23.6497543993548,90.5845490085483,25.5,A
31,N1,100032,link,Link,23.647861497135,90.5868804949521,649.0000000000009,None
32,N1,100033,bridge,MOLLIK PARA BRIDGE (R),23.6459685949152,90.5892119813559,40.5,C
33,N1,100034,link,Link,23.6419614832268,90.5914396895241,1018.0000000000007,None
34,N1,100035,bridge,KRIBORDI BOX CULVERT,23.6379543715384,90.5936673976923,6.0,A
35,N1,100036,link,Link,23.6358797957692,90.59553074134615,636.9999999999969,None
36,N1,100037,bridge,SHADIPUR BOX CULVERT,23.63380522,90.597394085,10.4,B
37,N1,100038,link,Link,23.6311360353846,90.59984782865385,787.0000000000026,None
38,N1,100039,bridge,Marikhali Bridge(L),23.6284668507692,90.6023015723077,86.92,A
39,N1,100040,link,Link,23.624175036860002,90.6053272287768,1143.9999999999984,None
40,N1,100041,bridge,SANGAKADI CULVERT,23.6198832229508,90.6083528852459,5.5,B
41,N1,100042,link,Link,23.61876200971065,90.60895174791705,268.0000000000007,None
42,N1,100043,bridge,ASHIR CHAR (Right),23.6176407964705,90.6095506105882,224.8,A
43,N1,100044,link,Link,23.615614090427748,90.61022678336894,484.99999999999943,None
44,N1,100045,bridge,Asharirchar-2 Bridge.(R),23.613587384385,90.6109029561497,119.32,A
45,N1,100046,link,Link,23.60817348647165,90.61321732635861,1312.0000000000011,None
46,N1,100047,bridge,Meghna Bridge,23.6027595885583,90.6155316965675,924.85,A
47,N1,100048,link,Link,23.5978707356738,90.6217508168297,1721.9999999999977,None
48,N1,100049,bridge,TATULTALA CULVERT,23.5929818827893,90.6279699370919,5.6,A
49,N1,100050,link,Link,23.59189536876805,90.62910339845101,337.0000000000033,None
50,N1,100051,bridge,BAILAKANDI CULVERT,23.5908088547468,90.6302368598101,5.5,A
51,N1,100052,link,Link,23.588563488643402,90.6323731402597,667.9999999999993,None
52,N1,100053,bridge,MALUAKANDI CULVEDRT,23.58631812254,90.6345094207093,5.6,A
53,N1,100054,link,Link,23.58214907369375,90.6382143648516,1195.0000000000002,None
54,N1,100055,bridge,Bhater char Bridge (L),23.5779800248475,90.6419193089939,172.1,A
55,N1,100056,link,Link,23.574805325272,90.64366761633906,823.0000000000005,None
56,N1,100057,bridge,Anarpara Bridge (L),23.5716306256965,90.6454159236842,29.85,A
57,N1,100058,link,Link,23.5688170106743,90.6470198242062,703.999999999997,None
58,N1,100059,bridge,VITIKANDA - ANAR PUR CULVERT,23.5660033956521,90.6486237247282,34.7,A
59,N1,100060,link,Link,23.56259721264085,90.65218564754925,1066.0000000000025,None
60,N1,100061,bridge,Alipur bridge(R),23.5591910296296,90.6557475703703,27.4,A
61,N1,100062,link,Link,23.55744965987805,90.6577444974636,564.0,None
62,N1,100063,bridge,Bhaber char Bridge(R),23.5557082901265,90.6597414245569,29.85,A
63,N1,100064,link,Link,23.55372524042405,90.6620476499073,649.0000000000009,None
64,N1,100065,bridge,Baushia Bridge(R),23.5517421907216,90.6643538752577,29.87,A
65,N1,100066,link,Link,23.5497399676822,90.66670464253954,655.9999999999989,None
66,N1,100067,bridge,PURRANBUICHE BOX CULVERT,23.5477377446428,90.6690554098214,9.1,A
67,N1,100068,link,Link,23.54768119419635,90.6691237377232,18.99999999999835,None
68,N1,100069,bridge,NOYAPARA,23.5476246437499,90.669192065625,5.2,A
69,N1,100070,link,Link,23.54515503749995,90.6720106390625,795.0000000000017,None
70,N1,100071,bridge,Madhya Baushia Bridge(L),23.54268543125,90.6748292125,72.49,A
71,N1,100072,link,Link,23.541038224025,90.67664350065,519.999999999996,None
72,N1,100073,bridge,BOCTAR KANDI BOX CULVERT,23.5393910168,90.6784577888,5.1,C
73,N1,100074,link,Link,23.5353953386611,90.68295335738,1297.000000000004,None
74,N1,100075,bridge,Baushia bazar Bridge( L ),23.5313996605222,90.68744892596,25.45,A
75,N1,100076,link,Link,23.530775811586402,90.68862205484746,298.9999999999995,None
76,N1,100077,bridge,CHAR BOUSHEA (2),23.5301519626506,90.6897951837349,8.4,A
77,N1,100078,link,Link,23.530268217975298,90.69611772901746,1302.9999999999973,None
78,N1,100079,bridge,Daudkandi Bridge.,23.5303844733,90.7024402743,1408.8,A
79,N1,100080,link,Link,23.53140153665,90.71336049885,2294.000000000004,None
80,N1,100081,bridge,Baldhakhal Bridge,23.5324186,90.7242807234,23.1,C
81,N1,100082,link,Link,23.532088691599952,90.72672936645,555.9999999999974,None
82,N1,100083,bridge,MAIS PARA BOX CULVERT,23.5317587831999,90.7291780095,6.0,B
83,N1,100084,link,Link,23.53078192214995,90.74371562975,3076.0000000000005,None
84,N1,100085,bridge,SHAHID NAGIR,23.5298050611,90.75825325,16.5,C
85,N1,100086,link,Link,23.530285294660402,90.76916648757665,2228.0000000000014,None
86,N1,100087,bridge,SARKAR BARI CULVERT,23.5307655282208,90.7800797251533,3.9,C
87,N1,100088,link,Link,23.5308169345816,90.785943621163,1707.0000000000007,None
88,N1,100089,bridge,AMIRABATH SLAB CULVERT,23.5308683409424,90.7918075171727,6.5,C
89,N1,100090,link,Link,23.5313459087212,90.80141151533635,1512.9999999999982,None
90,N1,100091,bridge,Ginlatoly bridge,23.5318234765,90.8110155135,15.9,A
91,N1,100092,link,Link,23.5323989028,90.82099649484995,2173.9999999999995,None
92,N1,100093,bridge,RAIPUR BOX CULVERT,23.5329743291,90.8309774761999,12.2,A
93,N1,100094,link,Link,23.52794549715,90.83759804469994,1755.0000000000025,None
94,N1,100095,bridge,AITAL BANGA BOX CULVERT,23.5229166652,90.8442186132,4.5,C
95,N1,100096,link,Link,23.5165022117035,90.85996950836764,3692.9999999999977,None
96,N1,100097,bridge,Illiot bazar Bridge,23.510087758207,90.8757204035353,28.9,C
97,N1,100098,link,Link,23.508045096153502,90.88894747121765,2832.000000000001,None
98,N1,100099,bridge,KHAT GHOR BOX CULVERT,23.5060024341,90.9021745389,5.9,B
99,N1,100100,link,Link,23.505807787850003,90.91182028035,1991.9999999999973,None
100,N1,100101,bridge,BAKRA BOX CULVERT,23.5056131416,90.9214660218,3.0,B
101,N1,100102,link,Link,23.5040104632,90.9323539573,2268.000000000001,None
102,N1,100103,bridge,MATIA BAZER,23.5024077848,90.9432418928,6.0,B
103,N1,100104,link,Link,23.5018814886,90.94531315084996,439.9999999999977,None
104,N1,100105,bridge,SONAPUR BOX CULVERT,23.5013551924,90.9473844088999,3.0,A
105,N1,100106,link,Link,23.4986257532,90.95948083024994,2640.0000000000005,None
106,N1,100107,bridge,KARON KHAL SLAB CULVERT,23.495896314,90.9715772516,4.6,B
107,N1,100108,link,Link,23.4945845643,90.9801486466,1862.000000000009,None
108,N1,100109,bridge,MILL GHAT BOX CULVERT,23.4932728146,90.9887200416,4.5,A
109,N1,100110,link,Link,23.4900767041627,91.0031433671235,3115.9999999999995,None
110,N1,100111,bridge,CHANDINA- SHAHA PARA RCC GIDER GRIDGE,23.4868805937254,91.017566692647,23.1,C
111,N1,100112,link,Link,23.484333958515947,91.0319507888608,3122.9999999999905,None
112,N1,100113,bridge,CORI PAI BOX CULVERT,23.4817873233065,91.0463348850746,4.6,B
113,N1,100114,link,Link,23.48176857658745,91.05134492687941,1033.0000000000014,None
114,N1,100115,bridge,COREPAI BOX CULVERT,23.4817498298684,91.0563549686842,4.6,B
115,N1,100116,link,Link,23.4811814579342,91.0618823689421,1168.9999999999968,None
116,N1,100117,bridge,NIMSHAR SLAB CULVERT,23.480613086,91.0674097692,1.5,A
117,N1,100118,link,Link,23.479142685550002,91.07607520425,1901.0000000000105,None
118,N1,100119,bridge,KABILA DUBARCHAR SLAB CULVERT,23.4776722851,91.0847406393,1.0,C
119,N1,100120,link,Link,23.4778940950191,91.0958869233537,2566.999999999993,None
120,N1,100121,bridge,NAZIRA BOX CULVERT,23.4781159049382,91.1070332074074,3.0,B
121,N1,100122,link,Link,23.47876214650575,91.1154626449881,1487.9999999999995,None
122,N1,100123,bridge,TIPRA BAZAR BOX CULVERT,23.4794083880733,91.1238920825688,1.4,A
123,N1,100124,link,Link,23.47947665603665,91.1264696132844,552.0000000000067,None
124,N1,100125,bridge,AMTOLI SLAB CULVERT,23.479544924,91.129047144,2.9,A
125,N1,100126,link,Link,23.4615894419136,91.13920697955939,4723.999999999989,None
126,N1,100127,bridge,DHANPUR RCC GIDER BRIDGE,23.4436339598272,91.1493668151188,23.4,A
127,N1,100128,link,Link,23.432441365159498,91.15863057617764,3379.000000000005,None
128,N1,100129,bridge,Paduar Bazar Bridge,23.4212487704918,91.1678943372365,35.97,C
129,N1,100130,link,Link,23.4165905967538,91.18089866107854,2507.9999999999955,None
130,N1,100131,bridge,Mostapur Bridge,23.4119324230158,91.1939029849206,27.35,C
131,N1,100132,link,Link,23.40479212140225,91.20866255980326,3657.000000000011,None
132,N1,100133,bridge,RAZAPARA RCC GIDER BRIDGE,23.3976518197887,91.2234221346859,27.9,A
133,N1,100134,link,Link,23.38450829764435,91.23421983809291,3680.9999999999973,None
134,N1,100135,bridge,Suagazi Bridge.,23.3713647755,91.2450175414999,30.48,A
135,N1,100136,link,Link,23.36176422646905,91.25115430808614,2518.000000000001,None
136,N1,100137,bridge,LAL BAG RCC GIDER BRIDGE,23.3521636774381,91.2572910746724,22.8,C
137,N1,100138,link,Link,23.34741757471905,91.26088835533619,1296.999999999997,None
138,N1,100139,bridge,CHANSIRI BOXCUIVERT,23.342671472,91.264485636,14.3,A
139,N1,100140,link,Link,23.3364088522,91.2696824592,1766.0000000000055,None
140,N1,100141,bridge,MIABAZAR BOX CULVERT,23.3301462324,91.2748792824,24.0,A
141,N1,100142,link,Link,23.3241079596569,91.27898300728505,1605.9999999999945,None
142,N1,100143,bridge,NOYA BAZER BOX CULVERT,23.3180696869138,91.2830867321701,9.2,A
143,N1,100144,link,Link,23.31321548001995,91.2848327178218,1164.0000000000014,None
144,N1,100145,bridge,DOLL BARI CULVERT,23.3083612731261,91.2865787034735,19.2,B
145,N1,100146,link,Link,23.3058959590796,91.2877778716043,608.0000000000041,None
146,N1,100147,bridge,DHARMA PUR SLAB CULVERT,23.3034306450331,91.2889770397351,2.6,B
147,N1,100148,link,Link,23.30069908610035,91.28999558836466,653.9999999999964,None
148,N1,100149,bridge,LALGORE BEZER CULVERT,23.2979675271676,91.2910141369942,3.2,A
149,N1,100150,link,Link,23.2938370829065,91.29198630405486,957.9999999999984,None
150,N1,100151,bridge,SUPUYA BOX CULVERT,23.2897066386454,91.2929584711155,13.4,A
151,N1,100152,link,Link,23.28595078224255,91.2948119904027,959.9999999999937,None
152,N1,100153,bridge,BOWCHI BAZAR CULVERT,23.2821949258397,91.2966655096899,4.6,B
153,N1,100154,link,Link,23.27760693791985,91.29981584894495,1248.0000000000045,None
154,N1,100155,bridge,AMAN GONG SLAB CULVERT,23.27301895,91.3029661882,6.3,B
155,N1,100156,link,Link,23.2674275220297,91.3049939634069,1335.000000000008,None
156,N1,100157,bridge,RANGAMATIA (1) BOX CULVERT,23.2618360940594,91.3070217386138,3.0,B
157,N1,100158,link,Link,23.260626372029698,91.30719141930689,273.9999999999867,None
158,N1,100159,bridge,RANGOWATIA 2 CULVERT,23.25941665,91.3073611,3.0,B
159,N1,100160,link,Link,23.258529813744047,91.30748837470375,199.00000000001228,None
160,N1,100161,bridge,NOWA PARA BOX CULVERT,23.2576429774881,91.3076156494075,3.6,B
161,N1,100162,link,Link,23.255194658649252,91.3080041449644,548.9999999999924,None
162,N1,100163,bridge,HARISHARDE CULVERT,23.2527463398104,91.3083926405213,4.5,B
163,N1,100164,link,Link,23.24856892620145,91.30989793489024,1013.0000000000052,None
164,N1,100165,bridge,SONAGATI BOX CULVERT,23.2443915125925,91.3114032292592,2.5,B
165,N1,100166,link,Link,23.2436477872778,91.31168859162345,182.00000000000216,None
166,N1,100167,bridge,BALUJURI BOX CULVERT,23.2429040619631,91.3119739539877,19.2,B
167,N1,100168,link,Link,23.241348046465,91.3122740200171,357.9999999999899,None
168,N1,100169,bridge,BALUZURI 2 CULVERT,23.2397920309669,91.3125740860465,2.6,A
169,N1,100170,link,Link,23.2379339913096,91.31278214186045,422.00000000001125,None
170,N1,100171,bridge,KALIR BAZAR BOX CULVERT,23.2360759516523,91.3129901976744,2.5,A
171,N1,100172,link,Link,23.232497771808248,91.31320613276574,806.999999999988,None
172,N1,100173,bridge,KALIA BAZER BOC CULVERT,23.2289195919642,91.3134220678571,3.1,B
173,N1,100174,link,Link,23.22741901961075,91.3134958927893,334.0000000000032,None
174,N1,100175,bridge,CHAUDDAGARAM BOX CULVERT,23.2259184472573,91.3135697177215,2.6,B
175,N1,100176,link,Link,23.2239761725175,91.31363515552741,438.0000000000024,None
176,N1,100177,bridge,CHADDAGRAM BAZAR BOX CULVERT,23.2220338977777,91.3137005933333,6.0,A
177,N1,100178,link,Link,23.217614734961252,91.3145251668616,1006.0000000000002,None
178,N1,100179,bridge,HAYDAR POLE BOX CULVERT,23.2131955721448,91.3153497403899,14.3,B
179,N1,100180,link,Link,23.20911710046925,91.3158332343324,932.9999999999927,None
180,N1,100181,bridge,FALGUNCORA CULVERT,23.2050386287937,91.3163167282749,6.1,A
181,N1,100182,link,Link,23.200613712084703,91.31699361760565,1036.0000000000014,None
182,N1,100183,bridge,ATTOCK GRAM BOX CULVERT,23.1961887953757,91.3176705069364,6.1,A
183,N1,100184,link,Link,23.19181191040295,91.31928781933814,1078.000000000003,None
184,N1,100185,bridge,BOSONTA PUR BOX CULVERT,23.1874350254302,91.3209051317399,6.1,C
185,N1,100186,link,Link,23.184615420206953,91.32089194160285,665.0000000000063,None
186,N1,100187,bridge,BASHONTA PUR (2),23.1817958149837,91.3208787514658,9.5,B
187,N1,100188,link,Link,23.1772115234259,91.32072810787575,1063.999999999993,None
188,N1,100189,bridge,NANKORA BOX CULVERT,23.1726272318681,91.3205774642857,3.1,B
189,N1,100190,link,Link,23.168070549393597,91.32108320537515,1037.9999999999968,None
190,N1,100191,bridge,ANDAJER BAZER BOX CULVERT,23.1635138669191,91.3215889464646,9.5,A
191,N1,100192,link,Link,23.1581251809279,91.3229534118399,1225.0000000000086,None
192,N1,100193,bridge,DIMATOLI (1) BOX CULVERT,23.1527364949367,91.3243178772152,6.3,B
193,N1,100194,link,Link,23.14820163143505,91.325492962123,1093.999999999994,None
194,N1,100195,bridge,DIMATOLY (2) BOX CULVERT,23.1436667679334,91.3266680470308,3.5,B
195,N1,100196,link,Link,23.14132804398395,91.32651329095924,524.0000000000009,None
196,N1,100197,bridge,JAGARNATHPUR BOX CULVERT,23.1389893200345,91.3263585348877,6.1,B
197,N1,100198,link,Link,23.136126644315652,91.32695247568435,664.0000000000157,None
198,N1,100199,bridge,JAGOT PUR BOX CULVERT,23.1332639685968,91.327546416481,3.0,B
199,N1,100200,link,Link,23.12925016318725,91.32896639268489,956.9999999999936,None
200,N1,100201,bridge,HASO BOTHACH BOX CULVERT,23.1252363577777,91.3303863688888,6.5,A
201,N1,100202,link,Link,23.122466867598497,91.331601440896,664.999999999992,None
202,N1,100203,bridge,FOKIR BAZAR SLAB CULVERT,23.1196973774193,91.3328165129032,4.5,B
203,N1,100204,link,Link,23.11776126640965,91.3339554989516,502.00000000000955,None
204,N1,100205,bridge,KAKKARA CULVERT,23.1158251554,91.335094485,5.3,B
205,N1,100206,link,Link,23.1116268002694,91.33757201430555,1075.9999999999934,None
206,N1,100207,bridge,Chanara Box Culvert,23.1074284451388,91.3400495436111,6.1,A
207,N1,100208,link,Link,23.10459238289545,91.34160627126205,717.9999999999893,None
208,N1,100209,bridge,CHANGARPULL(II) BOX CULVERT,23.1017563206521,91.343162998913,3.1,B
209,N1,100210,link,Link,23.09955378668965,91.34432931491105,552.9999999999973,None
210,N1,100211,bridge,ADONCORA,23.0973512527272,91.3454956309091,9.5,B
211,N1,100212,link,Link,23.0951905448229,91.3466632347859,548.0000000000018,None
212,N1,100213,bridge,PODOYA BOX CULVERT,23.0930298369186,91.3478308386627,3.1,A
213,N1,100214,link,Link,23.090052603966498,91.34952049396901,749.0000000000236,None
214,N1,100215,bridge,FOEALTPARA BOX CULVERT,23.0870753710144,91.3512101492753,9.25,B
215,N1,100216,link,Link,23.084533162072653,91.3526956483568,651.9999999999868,None
216,N1,100217,bridge,UTTOR KAIEATI CULVERT,23.0819909531309,91.3541811474383,3.5,A
217,N1,100218,link,Link,23.0799778289153,91.3553908252857,524.0000000000009,None
218,N1,100219,bridge,KOKALI BOX CULVERT,23.0779647046997,91.3566005031331,14.2,B
219,N1,100220,link,Link,23.07408144434985,91.35845135156654,956.9999999999936,None
220,N1,100221,bridge,DUTHOSHA BOX CULVERT,23.070198184,91.3603022,6.1,B
221,N1,100222,link,Link,23.06547275866665,91.36108233095236,1097.0000000000084,None
222,N1,100223,bridge,MOHAMMAD ALI MAZAR,23.0607473333333,91.3618624619047,4.0,B
223,N1,100224,link,Link,23.0493600694444,91.3637704671703,2578.0000000000027,None
224,N1,100225,bridge,FATAPUR BOX CULVERT,23.0379728055555,91.3656784724359,10.8,A
225,N1,100226,link,Link,23.032476461314303,91.365589478204,1262.0000000000005,None
226,N1,100227,bridge,DEBIPUR SLAB CULVERT,23.0269801170731,91.3655004839721,1.6,A
227,N1,100228,link,Link,23.019692479057703,91.37174004947789,2145.9999999999864,None
228,N1,100229,bridge,CHARIPUR CULVERT.,23.0124048410423,91.3779796149837,3.4,A
229,N1,100230,link,Link,23.00582679852115,91.38687740749185,2356.999999999999,None
230,N1,100231,bridge,RAMPUR BOX CULVERT,22.999248756,91.3957752,1.5,A
231,N1,100232,link,Link,22.9969884176401,91.39903234503815,855.0000000000182,None
232,N1,100233,bridge,RAMPUR BRIDGE,22.9947280792802,91.4022894900763,23.4,A
233,N1,100234,link,Link,22.97808840810855,91.4226428463895,5691.999999999979,None
234,N1,100235,bridge,Lemua Bridge(L),22.9614487369369,91.4429962027027,98.87,C
235,N1,100236,link,Link,22.95502630180175,91.461247793018,4188.000000000016,None
236,N1,100237,bridge,FAZAILPUR BOXCULVERT,22.9486038666666,91.4794993833333,1.5,A
237,N1,100238,link,Link,22.94910823783565,91.49078314142966,2347.9999999999845,None
238,N1,100239,bridge,MUHURI BRIDGE,22.9496126090047,91.502066899526,191.5,B
239,N1,100240,link,Link,22.9322886575725,91.51417821730685,4804.000000000002,None
240,N1,100241,bridge,DumGhat Bridge(L),22.9149647061403,91.5262895350877,222.43,A
241,N1,100242,link,Link,22.91233879727075,91.52760901926794,641.9999999999959,None
242,N1,100243,bridge,BUMGAT BOXCULVERT,22.9097128884012,91.5289285034482,6.1,A
243,N1,100244,link,Link,22.90697959196175,91.53027914053004,654.0000000000248,None
244,N1,100245,bridge,BOROYAR PARA SLUB CULVERT,22.9042462955223,91.5316297776119,3.0,A
245,N1,100246,link,Link,22.89794244776115,91.53355083880595,1483.9999999999804,None
246,N1,100247,bridge,BAROYARHAT BOX CULVERT,22.8916386,91.5354719,3.0,A
247,N1,100248,link,Link,22.883168647058802,91.5381777823529,1969.9999999999989,None
248,N1,100249,bridge,UTTOR SONAPAR BOX CULVERT,22.8746986941176,91.5408836647058,4.3,A
249,N1,100250,link,Link,22.873710364504802,91.54123977066226,241.00000000001387,None
250,N1,100251,bridge,CHAIRMEN BARI BOX CULVERT,22.872722034892,91.5415958766187,2.0,A
251,N1,100252,link,Link,22.87038920255235,91.5424461053306,550.9999999999877,None
252,N1,100253,bridge,MADDAM SONAPAR(1) BOX CULVERT,22.8680563702127,91.5432963340425,1.5,A
253,N1,100254,link,Link,22.8645220287318,91.5442257528778,829.0000000000077,None
254,N1,100255,bridge,DHARBAR TILA CULVERT,22.8609876872509,91.5451551717131,4.3,A
255,N1,100256,link,Link,22.860236237755,91.54531758524925,174.0000000000066,None
256,N1,100257,bridge,MADDUM SONAPHAR-3,22.8594847882591,91.5454799987854,2.0,A
257,N1,100258,link,Link,22.8577706777659,91.54559943484725,394.00000000000546,None
258,N1,100259,bridge,MAMAFOUN ASTANA CULVERT,22.8560565672727,91.5457188709091,1.5,A
259,N1,100260,link,Link,22.855602050008,91.5457705279324,107.99999999997567,None
260,N1,100261,bridge,MAMAFAKIR ASTANA SLAB CULVERT,22.8551475327433,91.5458221849557,1.5,A
261,N1,100262,link,Link,22.851882404606897,91.54609639836019,739.0000000000043,None
262,N1,100263,bridge,MASTANNAGOR BONCUL(1),22.8486172764705,91.5463706117647,8.5,A
263,N1,100264,link,Link,22.84700438297205,91.54691976640865,381.0000000000002,None
264,N1,100265,bridge,MUSTAU NOGAR(2),22.8453914894736,91.5474689210526,3.0,A
265,N1,100266,link,Link,22.8444233134868,91.5478092386513,235.00000000001364,None
266,N1,100267,bridge,MASTARI HAGOR 3 CULVERT,22.8434551375,91.54814955625,1.5,A
267,N1,100268,link,Link,22.842274735463853,91.54847962571705,274.0000000000009,None
268,N1,100269,bridge,MUSTAN NAGAR -4,22.8410943334277,91.5488096951841,3.0,A
269,N1,100270,link,Link,22.8369205513348,91.5494565983209,944.9999999999932,None
270,N1,100271,bridge,RAIPUR BOX CUL-1,22.8327467692419,91.5501035014577,3.0,A
271,N1,100272,link,Link,22.83185405572185,91.5503031780224,209.00000000000318,None
272,N1,100273,bridge,RAIPUR (2) BOX CULVERT,22.8309613422018,91.5505028545871,4.5,A
273,N1,100274,link,Link,22.82766599999995,91.55159719999995,771.9999999999914,None
274,N1,100275,bridge,PURPU DURGAPURE BOX CUL,22.8243706577981,91.5526915454128,12.4,C
275,N1,100276,link,Link,22.817967047722547,91.55447387917695,1462.0000000000175,None
276,N1,100277,bridge,MUCHIPOOL CULVERT,22.811563437647,91.5562562129411,9.5,B
277,N1,100278,link,Link,22.802872394989798,91.55960873760645,2115.9999999999854,None
278,N1,100279,bridge,MIRSARAI BOX CUL,22.7941813523326,91.5629612622718,4.5,A
279,N1,100280,link,Link,22.78818912209185,91.56603191423446,1486.9999999999948,None
280,N1,100281,bridge,MIRAISORI BRIDGE,22.7821968918511,91.5691025661971,23.2,B
281,N1,100282,link,Link,22.77819699192555,91.5709881590985,974.9999999999943,None
282,N1,100283,bridge,Mirsorai(2) box culvert,22.774197092,91.5728737519999,6.0,A
283,N1,100284,link,Link,22.772224379049,91.57398213655429,493.0000000000234,None
284,N1,100285,bridge,IANAINIPOL BOX CULVERT.,22.770251666098,91.5750905211087,9.7,A
285,N1,100286,link,Link,22.766657178744353,91.57777220161395,977.9999999999802,None
286,N1,100287,bridge,BOKIMTOLA BOX CULVERT,22.7630626913907,91.5804538821192,4.0,A
287,N1,100288,link,Link,22.758314007951398,91.58452715288885,1358.000000000004,None
288,N1,100289,bridge,VARTAKA BOX CULVERT,22.7535653245121,91.5886004236585,12.9,A
289,N1,100290,link,Link,22.752102337040498,91.5897422303637,403.99999999999636,None
290,N1,100291,bridge,VARTAGIA BOX CULVERT,22.7506393495689,91.5908840370689,3.0,A
291,N1,100292,link,Link,22.7475765009563,91.59264196430266,784.0000000000202,None
292,N1,100293,bridge,BOTHAGIA (-3) BOX CULVERT,22.7445136523437,91.5943998915364,8.1,B
293,N1,100294,link,Link,22.73391520390835,91.5984165159908,2507.9999999999814,None
294,N1,100295,bridge,NIAZAMPUR BOX CULVERT,22.723316755473,91.6024331404452,3.0,A
295,N1,100296,link,Link,22.7205705710057,91.6040977356072,707.9999999999984,None
296,N1,100297,bridge,MIRJAPUR BOX CULVERT,22.7178243865384,91.6057623307692,3.0,A
297,N1,100298,link,Link,22.71754756038455,91.60593540769224,72.00000000000273,None
298,N1,100299,bridge,MIRZAPUR (2) BOX CULVERT,22.7172707342307,91.6061084846153,3.0,A
299,N1,100300,link,Link,22.71557173625595,91.6071718532451,450.00000000001705,None
300,N1,100301,bridge,ISAMATI BOX CULVERT,22.7138727382812,91.6082352218749,19.2,C
301,N1,100302,link,Link,22.7078446211091,91.61160434138361,1526.9999999999868,None
302,N1,100303,bridge,DUKHIN UTHPAR BOX CULVERT,22.701816503937,91.6149734608923,19.2,A
303,N1,100304,link,Link,22.6965341093759,91.61757125914986,1300.9999999999877,None
304,N1,100305,bridge,VANGGARPOL BOX CULVERT,22.6912517148148,91.6201690574074,4.2,A
305,N1,100306,link,Link,22.6890607397603,91.62110381988015,542.0000000000016,None
306,N1,100307,bridge,BORO KAMALDA BOX CULVERT,22.6868697647058,91.6220385823529,3.2,A
307,N1,100308,link,Link,22.6819235319051,91.624427763863,1199.0000000000123,None
308,N1,100309,bridge,TARAT BOX CULVERT,22.6769772991044,91.6268169453731,6.0,A
309,N1,100310,link,Link,22.6734683691174,91.62808505746915,848.9999999999895,None
310,N1,100311,bridge,Tarial Bazar Culvert,22.6699594391304,91.6293531695652,3.0,A
311,N1,100312,link,Link,22.66787166861925,91.63024126383665,503.0000000000143,None
312,N1,100313,bridge,MIRJA PUR (3) BOX CULVERT,22.6657838981081,91.6311293581081,3.0,A
313,N1,100314,link,Link,22.663689789794752,91.63232755035034,537.0000000000061,None
314,N1,100315,bridge,SATU DURUAR HAT BOX CULVERT,22.6615956814814,91.6335257425926,3.0,A
315,N1,100316,link,Link,22.658154055446552,91.63572595953156,887.0000000000005,None
316,N1,100317,bridge,RONA SORA CULVERT,22.6547124294117,91.6379261764705,3.1,A
317,N1,100318,link,Link,22.6528916920781,91.6389801479676,464.999999999975,None
318,N1,100319,bridge,NUNA CHARA BOX CULVERT,22.6510709547445,91.6400341194647,4.6,A
319,N1,100320,link,Link,22.649263532987803,91.64097561826365,456.0000000000173,None
320,N1,100321,bridge,BOTTOL BOX CULVERT,22.6474561112311,91.6419171170626,12.4,A
321,N1,100322,link,Link,22.641776351098052,91.6450631788598,1432.9999999999927,None
322,N1,100323,bridge,KACHAI PATH BOX CULVERT,22.636096590965,91.648209240657,3.0,A
323,N1,100324,link,Link,22.635212581416752,91.64870848362415,223.0000000000132,None
324,N1,100325,bridge,KACHAI POTTI BOX CULVERT,22.6343285718685,91.6492077265913,3.0,A
325,N1,100326,link,Link,22.6312476035813,91.65098277621125,774.9999999999773,None
326,N1,100327,bridge,EGOL PUR BOX CULVERT,22.6281666352941,91.6527578258312,3.0,A
327,N1,100328,link,Link,22.6269994863217,91.65347179062644,298.0000000000018,None
328,N1,100329,bridge,UTTOR SITAKONDO BAZAR BOX CULVERT,22.6258323373493,91.6541857554217,6.1,B
329,N1,100330,link,Link,22.624439254260203,91.6548265042874,343.00000000001774,None
330,N1,100331,bridge,SITAKUNDA SLAB,22.6230461711711,91.6554672531531,3.0,A
331,N1,100332,link,Link,22.620401260091448,91.6567630985133,602.0000000000039,None
332,N1,100333,bridge,MOHADAB PUR BOX CULVERT,22.6177563490118,91.6580589438735,3.0,A
333,N1,100334,link,Link,22.6163731588196,91.65916299710014,478.999999999985,None
334,N1,100335,bridge,PURBOMOHADAB PUR SLAB CULVERT(L),22.6149899686274,91.6602670503268,4.6,A
335,N1,100336,link,Link,22.61337282141045,91.6614178617225,436.00000000000705,None
336,N1,100337,bridge,MADICAL MORE CULVERT,22.6117556741935,91.6625686731182,3.0,A
337,N1,100338,link,Link,22.60779755768495,91.66497161597084,1021.9999999999914,None
338,N1,100339,bridge,DOKHIN MOHADEB PUR BOX CULVERT,22.6038394411764,91.6673745588235,2.95,A
339,N1,100340,link,Link,22.603095068067148,91.66785564621844,194.00000000001683,None
340,N1,100341,bridge,KALIAVA BOX CULVERT,22.6023506949579,91.6683367336134,4.5,B
341,N1,100342,link,Link,22.5997586358049,91.6700779705512,691.0000000000025,None
342,N1,100343,bridge,SKM BOX CULVERT(1),22.5971665766519,91.671819207489,9.3,B
343,N1,100344,link,Link,22.595527378522,91.67285407212685,422.9999999999734,None
344,N1,100345,bridge,HATILOTA BOX CULVERT,22.5938881803921,91.6738889367647,4.5,A
345,N1,100346,link,Link,22.590461598584398,91.67546670272844,850.0000000000227,None
346,N1,100347,bridge,BAROCONDO BRIDGE,22.5870350167767,91.6770444686922,22.25,C
347,N1,100348,link,Link,22.5842718457061,91.67829175504579,685.0000000000023,None
348,N1,100349,bridge,BAROGINDO CULVERT,22.5815086746355,91.6795390413994,2.5,A
349,N1,100350,link,Link,22.579150848793148,91.6805808914647,566.0000000000025,None
350,N1,100351,bridge,BARO-CUNDHOW BOX CULVERT,22.5767930229508,91.68162274153,10.2,A
351,N1,100352,link,Link,22.5735418080043,91.6828162035749,773.9999999999725,None
352,N1,100353,bridge,PHPMORE BON CULVERT,22.5702905930578,91.6840096656198,3.0,A
353,N1,100354,link,Link,22.569143699751997,91.68434816305779,273.00000000002456,None
354,N1,100355,bridge,CHARA KANDI BOX CULVERT,22.5679968064462,91.6846866604958,8.2,A
355,N1,100356,link,Link,22.56720904904125,91.68493466206604,186.9999999999834,None
356,N1,100357,bridge,R. R TEXTAIL BOX CULVERT,22.5664212916363,91.6851826636363,4.5,A
357,N1,100358,link,Link,22.5624711889491,91.68634445306415,924.0000000000066,None
358,N1,100359,bridge,OHIDPUR BOX CULVERT,22.5585210862619,91.687506242492,4.1,A
359,N1,100360,link,Link,22.5564265319488,91.6881512787007,490.0000000000091,None
360,N1,100361,bridge,BARSH BARIA BRIDGE,22.5543319776357,91.6887963149094,21.6,B
361,N1,100362,link,Link,22.5505523493633,91.6907111876365,961.9999999999891,None
362,N1,100363,bridge,SOUTH BALSH KHALI BOX CULVERT,22.5467727210909,91.6926260603636,3.0,A
363,N1,100364,link,Link,22.5456312483636,91.6933785694545,300.00000000001137,None
364,N1,100365,bridge,DOKHIN BASH-KHALI BOX CULVERT,22.5444897756363,91.6941310785454,5.2,A
365,N1,100366,link,Link,22.5417598995528,91.6953381765176,656.9999999999823,None
366,N1,100367,bridge,SOTTANA MONDIR CULVERT,22.5390300234693,91.6965452744898,8.2,A
367,N1,100368,link,Link,22.5346989136577,91.69850469867345,1050.0000000000114,None
368,N1,100369,bridge,GULAM JUTE MILE BOX CULVERT,22.5303678038461,91.7004641228571,3.0,A
369,N1,100370,link,Link,22.5266518602825,91.702150369579,902.9999999999916,None
370,N1,100371,bridge,KYSTELGATE ARCH,22.5229359167189,91.7038366163009,16.3,B
371,N1,100372,link,Link,22.51714151656555,91.7063137026161,1420.9999999999923,None
372,N1,100373,bridge,Chotokumir Bridge,22.5113471164122,91.7087907889313,41.11,A
373,N1,100374,link,Link,22.508684580092847,91.710037805409,660.000000000025,None
374,N1,100375,bridge,ROYL CIMINT GATE CULVETRT,22.5060220437735,91.7112848218867,4.5,A
375,N1,100376,link,Link,22.50305393867505,91.7127176561988,728.999999999985,None
376,N1,100377,bridge,GORA MARA RCC GIRDER BRIDGE,22.5000858335766,91.7141504905109,17.6,A
377,N1,100378,link,Link,22.4952632156045,91.71621158195215,1181.0000000000116,None
378,N1,100379,bridge,GORA MARI BOX CULVERT,22.4904405976324,91.7182726733934,3.0,B
379,N1,100380,link,Link,22.48799430226445,91.71890181255876,564.9999999999977,None
380,N1,100381,bridge,BARAOWLLA BOX CULVERT,22.4855480068965,91.7195309517241,4.5,A
381,N1,100382,link,Link,22.48335611068655,91.71994715748784,498.9999999999952,None
382,N1,100383,bridge,MUDDO SONAISORI BRIDGE,22.4811642144766,91.7203633632516,23.2,B
383,N1,100384,link,Link,22.477008651915497,91.7218133586926,985.99999999999,None
384,N1,100385,bridge,HATIBORI BOX CULVERT,22.4728530893544,91.7232633541336,6.0,A
385,N1,100386,link,Link,22.4676458622772,91.7258970270668,1298.0000000000018,None
386,N1,100387,bridge,SHLAKHAR PAD BRIDGE,22.4624386352,91.7285307,23.2,B
387,N1,100388,link,Link,22.45565074279355,91.7314065447179,1632.000000000005,None
388,N1,100389,bridge,KODOM RASUL BOX CULVERT,22.4488628503871,91.7342823894358,3.0,A
389,N1,100390,link,Link,22.4474710918141,91.73482490907075,330.0000000000125,None
390,N1,100391,bridge,SALAKHARPAD BRIDGE,22.4460793332411,91.7353674287057,26.3,C
391,N1,100392,link,Link,22.44179142743135,91.73701668802849,1055.9999999999832,None
392,N1,100393,bridge,HASNA BAD BOX CULVERT,22.4375035216216,91.7386659473513,3.0,A
393,N1,100394,link,Link,22.4362886567567,91.73915933329724,310.0000000000023,None
394,N1,100395,bridge,VATERIE BRIDGE,22.4350737918918,91.7396527192432,40.0,A
395,N1,100396,link,Link,22.4285576727459,91.7438368492216,1649.000000000001,None
396,N1,100397,bridge,DHAMAKHALI BRIDGE,22.4220415536,91.7480209792,35.1,B
397,N1,100398,link,Link,22.41252804905,91.752297547725,2326.999999999998,None
398,N1,100399,bridge,VATIARI CULVERT,22.4030145445,91.75657411625,5.0,A
399,N1,100400,link,Link,22.399677213763248,91.75741463716385,768.0000000000007,None
400,N1,100401,bridge,T. B HOSPITAL GATE BOX CULVERT,22.3963398830265,91.7582551580777,3.0,A
401,N1,100402,link,Link,22.394528708794347,91.75867168595124,406.0000000000059,None
402,N1,100403,bridge,GAMMON BRIDGE,22.3927175345622,91.7590882138248,18.0,A
403,N1,100404,link,Link,22.388981708641097,91.7607969357924,926.9999999999925,None
404,N1,100405,bridge,PAKKA MATA BOX CULVERT,22.38524588272,91.76250565776,3.0,A
405,N1,100406,link,Link,22.3824735326933,91.76477665554665,790.9999999999968,None
406,N1,100407,bridge,GLAXO BOX CULVERT,22.3797011826666,91.7670476533333,8.3,A
407,N1,100408,link,Link,22.374692655163052,91.7704867621276,1045.000000000016,None
408,N1,100409,bridge,CORNAIL HAT BOX CULVERT,22.3696841276595,91.7739258709219,3.0,A
409,N1,100410,link,Link,22.36479493512935,91.8130976813695,10049.999999999984,None
410,N1,100411,bridge,BOALIA BOX CULVERT,22.3599057425992,91.8522694918171,4.65,C
411,N1,100412,link,Link,22.356086607037298,91.85244577082655,882.000000000005,None
412,N1,100413,bridge,Bakulia Bridge,22.3522674714754,91.852622049836,15.8,A
413,N1,100414,link,Link,22.34590341116765,91.85300460391059,1468.999999999994,None
414,N1,100415,bridge,HAFAS BAGAR BRIDGE,22.3395393508599,91.8533871579852,38.4,B
415,N1,100416,link,Link,22.33765333625465,91.85362042538435,489.0000000000043,None
416,N1,100417,bridge,RAZAKATI BRIDGE,22.3357673216494,91.8538536927835,39.4,B
417,N1,100418,link,Link,22.3353413292525,91.85362579858244,118.99999999999977,None
418,N1,100419,bridge,RAJAKHALI RCC GIDER BRIDGE,22.3349153368556,91.8533979043814,48.5,A
419,N1,100420,link,Link,22.330780236885403,91.85307864726019,1045.000000000016,None
420,N1,100421,bridge,Sha Amanot Bridge,22.3266451369152,91.852759390139,954.5,A
421,N1,100422,link,Link,22.3197858249092,91.854470653134,1616.9999999999902,None
422,N1,100423,bridge,Shikalbaha Bridge,22.3129265129032,91.856181916129,17.3,A
423,N1,100424,link,Link,22.309692134451602,91.8583154720645,861.9999999999948,None
424,N1,100425,bridge,SHIKALBAHA,22.306457756,91.860449028,15.2,C
425,N1,100426,link,Link,22.30454065421355,91.86200686254365,540.9999999999968,None
426,N1,100427,bridge,SOUTH MITTACHORI,22.3026235524271,91.8635646970873,3.0,A
427,N1,100428,link,Link,22.3014543408893,91.864431363902,308.00000000002115,None
428,N1,100429,bridge,SHIKALBAHA BOX CULVERT,22.3002851293515,91.8652980307167,5.7,B
429,N1,100430,link,Link,22.2989100777039,91.86583053111535,325.9999999999934,None
430,N1,100431,bridge,KADUMTOLI CULVERT,22.2975350260563,91.866363031514,3.0,A
431,N1,100432,link,Link,22.295385828484797,91.86739954830965,540.9999999999968,None
432,N1,100433,bridge,ISLAMPUR CULVERT,22.2932366309133,91.8684360651053,1.5,A
433,N1,100434,link,Link,22.292439386044848,91.86936360314084,304.00000000000205,None
434,N1,100435,bridge,NOLBILA CULVERT,22.2916421411764,91.8702911411764,3.0,A
435,N1,100436,link,Link,22.292125035688848,91.87165562942485,322.00000000000273,None
436,N1,100437,bridge,SHIKALBAHA MORE,22.2926079302013,91.8730201176733,3.0,A
437,N1,100438,link,Link,22.2944389000816,91.8768864599773,697.0000000000027,None
438,N1,100439,bridge,Sikolbaha Bridge-1,22.2962698699619,91.8807528022813,116.13,A
439,N1,100440,link,Link,22.2975533965194,91.88405204228555,967.9999999999893,None
440,N1,100441,bridge,SHANTERHAT CULVERT,22.2988369230769,91.8873512822898,3.0,B
441,N1,100442,link,Link,22.30046975063535,91.8933047823343,1270.9999999999866,None
442,N1,100443,bridge,SHANTERHAT BOX CULVERT,22.3021025781938,91.8992582823788,3.1,B
443,N1,100444,link,Link,22.30281956421155,91.90184050208384,556.0000000000116,None
444,N1,100445,bridge,KUSUMPUR BOX CULVERT,22.3035365502293,91.9044227217889,3.0,A
445,N1,100446,link,Link,22.30592776898255,91.90931901136615,1171.999999999997,None
446,N1,100447,bridge,tassi bazer(R),22.3083189877358,91.9142153009434,3.0,A
447,N1,100448,link,Link,22.3110368354226,91.91726646937761,872.9999999999905,None
448,N1,100449,bridge,MONSHA CULVERT,22.3137546831094,91.9203176378118,3.0,A
449,N1,100450,link,Link,22.314750746028352,91.92233502548481,512.0000000000005,None
450,N1,100451,bridge,UTTOR SONAPUR,22.3157468089473,91.9243524131578,3.0,A
451,N1,100452,link,Link,22.3147516848736,91.9291678221789,1050.0000000000114,None
452,N1,100453,bridge,Pirol,22.3137565607999,91.9339832312,5.3,A
453,N1,100454,link,Link,22.311097985361748,91.94118596458216,1855.0000000000182,None
454,N1,100455,bridge,UZIRPUR HIGH SCHOOL,22.3084394099236,91.9483886979643,3.0,A
455,N1,100456,link,Link,22.30452050716175,91.95711723528215,2320.9999999999695,None
456,N1,100457,bridge,Patiya Bridge,22.3006016043999,91.9658457726,50.3,B
457,N1,100458,link,Link,22.29587340207055,91.97460629891316,2253.0000000000427,None
458,N1,100459,bridge,PALYA BUS STATION,22.2911451997412,91.9833668252263,12.4,A
459,N1,100460,link,Link,22.288538607953903,91.98783801161315,1113.999999999976,None
460,N1,100461,bridge,Srimi Bridge,22.2859320161666,91.992309198,61.0,B
461,N1,100462,link,Link,22.283537242731903,91.99593318381079,940.9999999999741,None
462,N1,100463,bridge,KOMOLMUNSHE HAT BOX CULVERT,22.2811424692972,91.9995571696216,14.0,B
463,N1,100464,link,Link,22.27611602214855,92.0025772098108,1394.0000000000055,None
464,N1,100465,bridge,KHORNA CULVERT,22.2710895749999,92.00559725,3.0,A
465,N1,100466,link,Link,22.2661254747983,92.00645041693545,1136.000000000024,None
466,N1,100467,bridge,Korna Bridge,22.2611613745967,92.0073035838709,15.2,B
467,N1,100468,link,Link,22.26010648015545,92.0077073538402,245.00000000000455,None
468,N1,100469,bridge,AJIMPUR CUL,22.2590515857142,92.0081111238095,9.8,C
469,N1,100470,link,Link,22.2569945340884,92.0092066262704,521.9999999999914,None
470,N1,100471,bridge,MOJAFFARABAD,22.2549374824626,92.0103021287313,9.2,A
471,N1,100472,link,Link,22.25402872193035,92.0111370008398,269.00000000000546,None
472,N1,100473,bridge,MOJAFFORABAD BOX CULVERT,22.2531199613981,92.0119718729483,6.0,A
473,N1,100474,link,Link,22.25091648815715,92.01390298776789,651.9999999999868,None
474,N1,100475,bridge,MOJAFFORABAD,22.2487130149162,92.0158341025875,9.4,A
475,N1,100476,link,Link,22.2445495862681,92.01881296809955,1247.9999999999905,None
476,N1,100477,bridge,ROWSONAT CUL,22.24038615762,92.0217918336116,14.0,A
477,N1,100478,link,Link,22.2385103554287,92.0225282912662,466.0000000000082,None
478,N1,100479,bridge,KANCHANAGAR CUL,22.2366345532374,92.0232647489208,14.0,A
479,N1,100480,link,Link,22.23406618796125,92.02411520501595,651.9999999999868,None
480,N1,100481,bridge,Kanchon Nagar Bridge,22.2314978226851,92.0249656611111,12.7,B
481,N1,100482,link,Link,22.22877933777275,92.0257153484045,435.0000000000023,None
482,N1,100483,bridge,NORTH JOARA PAKKAR DOKAN,22.2260608528604,92.0264650356979,9.4,B
483,N1,100484,link,Link,22.22416642132815,92.02692181682849,435.0000000000023,None
484,N1,100485,bridge,GASBAREA BOX CULVERT,22.2222719897959,92.0273785979591,14.0,A
485,N1,100486,link,Link,22.21892967014065,92.02820081868825,782.0000000000391,None
486,N1,100487,bridge,GASBAREA COLLEGE BOX CULVERT,22.2155873504854,92.0290230394174,9.2,A
487,N1,100488,link,Link,22.21134500216575,92.0326777546737,1282.9999999999586,None
488,N1,100489,bridge,MAZAR POINT BRIDGE,22.2071026538461,92.03633246993,50.4,C
489,N1,100490,link,Link,22.206043206813348,92.0373318519668,338.0000000000223,None
490,N1,100491,bridge,KHOLGHAR CUL,22.2049837597806,92.0383312340036,9.2,B
491,N1,100492,link,Link,22.189450827655648,92.0458118887895,4017.9999999999723,None
492,N1,100493,bridge,NOYARHAT,22.1739178955307,92.0532925435754,12.3,B
493,N1,100494,link,Link,22.1662725880879,92.06074942662639,2695.00000000005,None
494,N1,100495,bridge,Sangu Bridge,22.1586272806451,92.0682063096774,211.0,B
495,N1,100496,link,Link,22.1542397976041,92.06891969076099,1139.9999999999864,None
496,N1,100497,bridge,KATGOR CULVERT,22.1498523145631,92.0696330718446,9.2,A
497,N1,100498,link,Link,22.1434022737486,92.06978159999414,1445.9999999999695,None
498,N1,100499,bridge,MOULOVER DOKAN,22.1369522329341,92.0699301281437,12.4,A
499,N1,100500,link,Link,22.1347365378956,92.07004333239479,500.0,None
500,N1,100501,bridge,PATATR PULL CULVERT,22.1325208428571,92.0701565366459,15.4,A
501,N1,100502,link,Link,22.131218435714253,92.07037950403719,298.0000000000018,None
502,N1,100503,bridge,Pathanerpul Bridge,22.1299160285714,92.0706024714285,33.65,A
503,N1,100504,link,Link,22.12882491480115,92.07080184952865,252.9999999999859,None
504,N1,100505,bridge,Noyakhalar Muk Bridge,22.1277338010309,92.0710012276288,27.9,A
505,N1,100506,link,Link,22.125405700001302,92.0713511379789,513.0000000000337,None
506,N1,100507,bridge,NOYAKHALARMUK,22.1230775989717,92.071701048329,15.4,A
507,N1,100508,link,Link,22.1217825498186,92.07183578090326,343.00000000001774,None
508,N1,100509,bridge,NOYA KHALAR MUK (KARANIERHAT) BOX CULVERT,22.1204875006655,92.0719705134775,20.4,A
509,N1,100510,link,Link,22.1169199928859,92.0723287088664,841.9999999999845,None
510,N1,100511,bridge,KARANERHAT CULVERT,22.1133524851063,92.0726869042553,5.0,A
511,N1,100512,link,Link,22.10346499277835,92.0765958519024,2389.9999999999864,None
512,N1,100513,bridge,KOACHIA(MADARBHI),22.0935775004504,92.0805047995495,11.2,A
513,N1,100514,link,Link,22.08882216601465,92.08685086867425,1706.9999999999936,None
514,N1,100515,bridge,MITADIGI ACADEMY,22.0840668315789,92.093196937799,2.0,A
515,N1,100516,link,Link,22.08229371978945,92.09584123461374,708.0000000000268,None
516,N1,100517,bridge,MITADIGI,22.080520608,92.0984855314285,12.6,A
517,N1,100518,link,Link,22.07504034467795,92.10138047757864,1399.9999999999773,None
518,N1,100519,bridge,RAJGHATA BRIDGE,22.0695600813559,92.1042754237288,30.3,A
519,N1,100520,link,Link,22.0687350185931,92.10491421363115,235.99999999999,None
520,N1,100521,bridge,THAKUR DIGI BOX CULVERT,22.0679099558303,92.1055530035335,2.0,A
521,N1,100522,link,Link,22.06583333580985,92.10632955650355,525.0000000000341,None
522,N1,100523,bridge,Khoria Nagar Bridge,22.0637567157894,92.1071061094736,38.5,A
523,N1,100524,link,Link,22.0623214328947,92.1074197397368,329.9999999999841,None
524,N1,100525,bridge,NOYA PARA BOX CULVERT,22.06088615,92.10773337,2.5,A
525,N1,100526,link,Link,22.05869563276695,92.10840941461166,509.9999999999909,None
526,N1,100527,bridge,PODUA NOYA PARA BOX CULVERT,22.0565051155339,92.1090854592233,8.2,A
527,N1,100528,link,Link,22.05421737873465,92.10907342396645,512.0000000000005,None
528,N1,100529,bridge,PODUA BAZAR BOX CULVERT,22.0519296419354,92.1090613887096,12.6,A
529,N1,100530,link,Link,22.048012949276497,92.10806217082535,922.0000000000255,None
530,N1,100531,bridge,BARO AWLIA(R),22.0440962566176,92.1070629529411,13.64,A
531,N1,100532,link,Link,22.040843054597453,92.1055260311097,835.9999999999559,None
532,N1,100533,bridge,TALOCKDNR PARA BOX CULVERT,22.0375898525773,92.1039891092783,2.5,A
533,N1,100534,link,Link,22.03472736861665,92.10405688797246,652.0000000000437,None
534,N1,100535,bridge,AMIRABAD BOX CULVERT,22.031864884656,92.1041246666666,2.5,A
535,N1,100536,link,Link,22.030283124146152,92.10377699696966,377.00000000000955,None
536,N1,100537,bridge,Amirabad Bridge,22.0287013636363,92.1034293272727,68.8,A
537,N1,100538,link,Link,22.02735295556675,92.10306303582766,321.9999999999459,None
538,N1,100539,bridge,AMIRABAD LOHAGOR BOX CULVERT,22.0260045474972,92.1026967443826,2.0,A
539,N1,100540,link,Link,22.02325128767055,92.10206225626496,650.0000000000341,None
540,N1,100541,bridge,AMIRABAD LOHAGORA BOX CULVERT,22.0204980278439,92.1014277681473,10.0,A
541,N1,100542,link,Link,22.0141590390832,92.0971021747188,1831.0000000000173,None
542,N1,100543,bridge,LOHAGORA L.S BOX CULVERT,22.0078200503225,92.0927765812903,3.0,A
543,N1,100544,link,Link,22.005996332150453,92.09167260795695,491.9999999999618,None
544,N1,100545,bridge,DIGIRPARK BOX CULVERT,22.0041726139784,92.0905686346236,12.6,A
545,N1,100546,link,Link,22.002301126989202,92.0894440056451,508.0000000000382,None
546,N1,100547,bridge,DIGIRPAR BOX CULVERT,22.00042964,92.0883193766666,6.2,A
547,N1,100548,link,Link,21.99813280208405,92.0878891446404,544.9999999999591,None
548,N1,100549,bridge,ZADUNAGOR FILLING BOX CULVERT,21.9958359641681,92.0874589126142,3.0,A
549,N1,100550,link,Link,21.995788483180903,92.087452488574,11.000000000024102,None
550,N1,100551,bridge,ZADUNAPUR SHAPIR FILLING STATION -(2) BOX CULVERT,21.9957410021937,92.0874460645338,12.4,A
551,N1,100552,link,Link,21.99398722045165,92.0869021359535,423.9999999999782,None
552,N1,100553,bridge,Khasmahal Bridge,21.9922334387096,92.0863582073732,58.5,A
553,N1,100554,link,Link,21.991256841542302,92.0860220868116,232.00000000002774,None
554,N1,100555,bridge,ZADUNAGOR BUS STATION BOX CULVERT,21.990280244375,92.08568596625,14.2,A
555,N1,100556,link,Link,21.988660559256452,92.0848401658836,408.00000000001546,None
556,N1,100557,bridge,Aadunagor bridge,21.9870408741379,92.0839943655172,24.2,A
557,N1,100558,link,Link,21.9844724589557,92.08238384596609,669.9999999999591,None
558,N1,100559,bridge,HATIAR PULL PC GIDER BRIDGE,21.9819040437735,92.080773326415,22.5,A
559,N1,100560,link,Link,21.98118320357965,92.07982247679016,266.9999999999959,None
560,N1,100561,bridge,HATIAR PULL BOX CULVERT,21.9804623633858,92.0788716271653,18.7,A
561,N1,100562,link,Link,21.9798804688274,92.0773604267405,345.0000000000273,None
562,N1,100563,bridge,SHIX DAR PARA BOX CULVERT,21.979298574269,92.0758492263157,3.5,A
563,N1,100564,link,Link,21.9765834886094,92.07208485263669,1089.999999999975,None
564,N1,100565,bridge,MUSKAMPANI PARA BOX CULVERT,21.9738684029498,92.0683204789577,2.5,A
565,N1,100566,link,Link,21.9714132613153,92.0662352953299,752.0000000000095,None
566,N1,100567,bridge,AODU NAGOR (2) BOX CULVERT,21.9689581196808,92.0641501117021,1.5,A
567,N1,100568,link,Link,21.96558598846785,92.0637334940863,670.9999999999923,None
568,N1,100569,bridge,Rataykul Bridge,21.9622138572549,92.0633168764705,22.4,A
569,N1,100570,link,Link,21.960726984272597,92.06429800315459,386.0000000000241,None
570,N1,100571,bridge,BONPUKR PARA BOX CULVERT,21.9592401112903,92.0652791298387,8.2,A
571,N1,100572,link,Link,21.9586361374633,92.06583620582845,317.0000000000073,None
572,N1,100573,bridge,BON PUKUL PARA BOX CULVERT,21.9580321636363,92.0663932818182,3.0,A
573,N1,100574,link,Link,21.9550558521636,92.06710354513174,615.9999999999854,None
574,N1,100575,bridge,SANTI RCC GIDER BRIDGE,21.9520795406909,92.0678138084453,22.4,A
575,N1,100576,link,Link,21.948739456354097,92.06737123469985,752.0000000000095,None
576,N1,100577,bridge,SANTI BOX CULVERT,21.9453993720173,92.0669286609544,1.4,A
577,N1,100578,link,Link,21.940714193732198,92.0647356922658,1163.000000000011,None
578,N1,100579,bridge,BRICK FIELD BOX CULVERT,21.9360290154471,92.0625427235772,4.5,A
579,N1,100580,link,Link,21.9349872284745,92.06210443886366,251.9999999999527,None
580,N1,100581,bridge,BACK FILD BOX CULVERT,21.9339454415019,92.0616661541501,9.3,A
581,N1,100582,link,Link,21.93312705705665,92.0612335560559,216.00000000000819,None
582,N1,100583,bridge,AZIZNAGOR FOREST BOX CULVERT,21.9323086726114,92.0608009579617,4.5,A
583,N1,100584,link,Link,21.931344961305697,92.06024249773085,254.99999999999545,None
584,N1,100585,bridge,AZIZ NOGOR FOREST BOX CULVERT,21.93038125,92.0596840375,4.7,A
585,N1,100586,link,Link,21.9241466052564,92.0597101681517,1338.0000000000223,None
586,N1,100587,bridge,AZIZNAGOR BOX CULVERT,21.9179119605128,92.0597362988034,2.0,A
587,N1,100588,link,Link,21.9173355634247,92.05986311507826,197.00000000000273,None
588,N1,100589,bridge,AZIZ NOGAR BOX CULVERT,21.9167591663366,92.0599899313531,3.0,A
589,N1,100590,link,Link,21.915415943482202,92.06026857016084,358.0000000000041,None
590,N1,100591,bridge,AZIZ NAGOR 1,21.9140727206278,92.0605472089686,4.0,A
591,N1,100592,link,Link,21.9118478163804,92.0605566677915,507.000000000005,None
592,N1,100593,bridge,AZIZ NAGOR 2,21.909622912133,92.0605661266144,9.2,A
593,N1,100594,link,Link,21.900323282033348,92.0601336011525,1991.9999999999618,None
594,N1,100595,bridge,HARBHANG CHOR,21.8910236519337,92.0597010756906,13.64,A
595,N1,100596,link,Link,21.886122586651098,92.05935131023425,1109.0000000000373,None
596,N1,100597,bridge,GHOIL MARA BOX CULVERT,21.8812215213685,92.0590015447779,9.3,A
597,N1,100598,link,Link,21.87817063076295,92.0590556930582,685.9999999999786,None
598,N1,100599,bridge,HARBANG,21.8751197401574,92.0591098413385,3.0,A
599,N1,100600,link,Link,21.86754615994355,92.0596502749485,1716.9999999999845,None
600,N1,100601,bridge,HARBANGCHORA,21.8599725797297,92.0601907085585,56.4,A
601,N1,100602,link,Link,21.85645068489245,92.06057416422394,792.00000000003,None
602,N1,100603,bridge,ALIPUR BOX CULVERT,21.8529287900552,92.0609576198894,14.3,A
603,N1,100604,link,Link,21.8479494321168,92.06227804186955,1194.9999999999932,None
604,N1,100605,bridge,HAR BAG BOX CULVERT,21.8429700741784,92.0635984638497,4.5,A
605,N1,100606,link,Link,21.8385366947325,92.06593602746625,1119.0000000000282,None
606,N1,100607,bridge,ATKOTA,21.8341033152866,92.0682735910828,15.8,A
607,N1,100608,link,Link,21.83106456835755,92.06978857292235,711.9999999999891,None
608,N1,100609,bridge,AKOTA BAZAR BOX CULVERT,21.8280258214285,92.0713035547619,7.3,A
609,N1,100610,link,Link,21.82690450102035,92.0718250914966,276.00000000001046,None
610,N1,100611,bridge,BODOI TOLA RCC GIDER BRIDGE,21.8257831806122,92.0723466282313,46.0,A
611,N1,100612,link,Link,21.82346302783025,92.07318338355469,545.9999999999923,None
612,N1,100613,bridge,BODAITALI BOX CULVERT,21.8211428750483,92.0740201388781,12.4,A
613,N1,100614,link,Link,21.819656067634597,92.07398218711859,336.9999999999891,None
614,N1,100615,bridge,BODOITOLI BOX CULVERT,21.8181692602209,92.0739442353591,14.0,A
615,N1,100616,link,Link,21.810796531392498,92.0755882240898,1822.0000000000027,None
616,N1,100617,bridge,BANIYAR CHORA,21.8034238025641,92.0772322128205,14.0,A
617,N1,100618,link,Link,21.79563890547555,92.07804310963606,1771.9999999999914,None
618,N1,100619,bridge,NOL BELA-1 BOX CULVERT,21.787854008387,92.0788540064516,20.6,A
619,N1,100620,link,Link,21.7874257461935,92.07890166122576,96.99999999997999,None
620,N1,100621,bridge,NOL BELA BOX CULVERT,21.786997484,92.0789493159999,21.0,A
621,N1,100622,link,Link,21.785596407555552,92.0790959257777,318.0000000000405,None
622,N1,100623,bridge,NOLBELA BOX CULVERT,21.7841953311111,92.0792425355555,14.2,B
623,N1,100624,link,Link,21.77886462666665,92.0815785044444,1431.9999999999595,None
624,N1,100625,bridge,DIDDA BAZAR BOX CULVERT,21.7735339222222,92.0839144733333,15.7,A
625,N1,100626,link,Link,21.772564128858498,92.08301221397039,328.0000000000314,None
626,N1,100627,bridge,MATHAMUHURI BRIDGE,21.7715943354948,92.0821099546075,300.0,C
627,N1,100628,link,Link,21.755870476995952,92.08236716458694,3932.9999999999927,None
628,N1,100629,bridge,BANDI BAZAR BOX CULVERT,21.7401466184971,92.0826243745664,9.3,B
629,N1,100630,link,Link,21.739354768823,92.08290600324065,187.99999999998818,None
630,N1,100631,bridge,KUMARIKOOL BOX CULVERT,21.7385629191489,92.0831876319149,14.0,A
631,N1,100632,link,Link,21.735584889353852,92.08346823250155,673.9999999999782,None
632,N1,100633,bridge,PASIYAKALI BOX CULVERT,21.7326068595588,92.0837488330882,5.2,A
633,N1,100634,link,Link,21.73179734552525,92.0837822386435,183.00000000004957,None
634,N1,100635,bridge,PASIYAKALI (2),21.7309878314917,92.0838156441988,38.8,A
635,N1,100636,link,Link,21.72753088279955,92.0836798963374,781.9999999999823,None
636,N1,100637,bridge,HASIRUGIGI,21.7240739341074,92.083544148476,12.6,A
637,N1,100638,link,Link,21.71666265500435,92.08210960440874,1839.999999999975,None
638,N1,100639,bridge,CHOHAJANYA (1),21.7092513759013,92.0806750603415,12.8,A
639,N1,100640,link,Link,21.706040706499,92.07966034275135,789.0000000000441,None
640,N1,100641,bridge,CHOHAJANIYA (2),21.7028300370967,92.0786456251612,9.3,A
641,N1,100642,link,Link,21.68955466351235,92.07772654999064,3121.9999999999573,None
642,N1,100643,bridge,JASJARI BRIDGE,21.676279289928,92.0768074748201,59.6,A
643,N1,100644,link,Link,21.6741921251058,92.07660336400579,473.0000000000132,None
644,N1,100645,bridge,DULAHAJARA (SAFARI PARK),21.6721049602836,92.0763992531915,14.0,A
645,N1,100646,link,Link,21.66752270089895,92.07573544957225,966.0000000000082,None
646,N1,100647,bridge,DULAHAJARA CULVERT,21.6629404415143,92.075071645953,3.5,A
647,N1,100648,link,Link,21.6614973716094,92.07508710621511,322.00000000000273,None
648,N1,100649,bridge,DULAHAJAR BRIDGE,21.6600543017045,92.0751025664772,54.4,A
649,N1,100650,link,Link,21.6554551837636,92.07433224336515,1060.9999999999786,None
650,N1,100651,bridge,BOYRAGIR KHIL,21.6508560658227,92.0735619202531,61.0,C
651,N1,100652,link,Link,21.649470413389402,92.0734455714811,319.0000000000168,None
652,N1,100653,bridge,PAGOLARIBIL,21.6480847609561,92.0733292227091,4.5,A
653,N1,100654,link,Link,21.635309974483498,92.07351634977415,3180.999999999983,None
654,N1,100655,bridge,KHUTAKHALI,21.6225351880109,92.0737034768392,1.45,B
655,N1,100656,link,Link,21.62045592420595,92.07143740721655,667.00000000003,None
656,N1,100657,bridge,Khutakhali Bazar Bridge,21.618376660401,92.0691713375939,44.55,A
657,N1,100658,link,Link,21.612447813701102,92.06573920355225,914.9999999999636,None
658,N1,100659,bridge,FULCHARI (NEWPARA),21.6065189670012,92.0623070695106,7.0,A
659,N1,100660,link,Link,21.60255624857595,92.0620541553583,954.0000000000077,None
660,N1,100661,bridge,FULCHARI CULVERT,21.5985935301507,92.061801241206,9.3,A
661,N1,100662,link,Link,21.5973336137464,92.06160539103485,436.00000000003547,None
662,N1,100663,bridge,FULCHARI BAZAR,21.5960736973421,92.0614095408637,14.0,A
663,N1,100664,link,Link,21.59275233568085,92.06222044592205,576.9999999999982,None
664,N1,100665,bridge,NAPITE KHALI CULVERT,21.5894309740196,92.0630313509804,1.4,A
665,N1,100666,link,Link,21.5885168870098,92.0639680683473,520.9999999999582,None
666,N1,100667,bridge,NAPITE KHALI,21.5876028,92.0649047857142,4.5,C
667,N1,100668,link,Link,21.58533846251705,92.0653103161129,532.0000000000391,None
668,N1,100669,bridge,EAST NAPITL KHAL BOX CULVERT,21.5830741250341,92.0657158465116,2.5,A
669,N1,100670,link,Link,21.578740820662098,92.06823025886814,1044.999999999959,None
670,N1,100671,bridge,NAEK KHALI BOX CULVERT,21.5744075162901,92.0707446712247,12.4,A
671,N1,100672,link,Link,21.56836384258945,92.0702792982049,1522.0000000000482,None
672,N1,100673,bridge,KHODIA BARI PRIMARY BOX CULVERT,21.5623201688888,92.0698139251851,9.5,A
673,N1,100674,link,Link,21.5613122142031,92.06948076259255,255.9999999999718,None
674,N1,100675,bridge,ISLAMABAD KHODIABARI BOX CULVERT,21.5603042595174,92.0691476,4.8,A
675,N1,100676,link,Link,21.5598967553619,92.06904785,113.9999999999759,None
676,N1,100677,bridge,ISLAMABAD KHODIA BARI BOX CULVERT,21.5594892512064,92.0689481,7.0,A
677,N1,100678,link,Link,21.557457431725602,92.0684492122449,633.0000000000382,None
678,N1,100679,bridge,Eidgaon Bazar Bridge,21.5554256122448,92.0679503244898,46.0,A
679,N1,100680,link,Link,21.55124610940105,92.06742284994979,765.9999999999627,None
680,N1,100681,bridge,Goro Bazar Bridge,21.5470666065573,92.0668953754098,44.63,A
681,N1,100682,link,Link,21.53629817304605,92.0661102999142,2315.0000000000546,None
682,N1,100683,bridge,SHAT GOREA PARA BOX CULVERT,21.5255297395348,92.0653252244186,14.0,A
683,N1,100684,link,Link,21.52463148372085,92.06544999215114,205.99999999996044,None
684,N1,100685,bridge,KALIRCHARA BOX CULVERT,21.5237332279069,92.0655747598837,8.0,A
685,N1,100686,link,Link,21.5222520843238,92.0658594114233,338.99999999999864,None
686,N1,100687,bridge,KALIRCHARA BAZAR BOX CULVERT,21.5207709407407,92.0661440629629,15.4,A
687,N1,100688,link,Link,21.5201398749649,92.06640934661655,153.00000000002,None
688,N1,100689,bridge,KALIRCHAR,21.5195088091891,92.0666746302702,5.0,A
689,N1,100690,link,Link,21.516625391151152,92.0680077604181,707.99999999997,None
690,N1,100691,bridge,RASHIDNAGAR,21.5137419731132,92.069340890566,3.0,A
691,N1,100692,link,Link,21.512090835384697,92.07010077301734,417.00000000003,None
692,N1,100693,bridge,ROSHIDNAGAR CULVERT,21.5104396976562,92.0708606554687,2.5,A
693,N1,100694,link,Link,21.508473312560447,92.07208164868506,522.9999999999677,None
694,N1,100695,bridge,DOLERCHARA CULVERT,21.5065069274647,92.0733026419014,7.5,A
695,N1,100696,link,Link,21.501130209864897,92.07549061376835,1365.000000000009,None
696,N1,100697,bridge,ROSHIDNAGAR (2),21.4957534922651,92.0776785856353,14.0,A
697,N1,100698,link,Link,21.49531150331485,92.07800664044194,128.00000000004275,None
698,N1,100699,bridge,"ROSHIDNAGAR U,R CULVERT",21.4948695143646,92.0783346952486,14.1,A
699,N1,100700,link,Link,21.48654129140015,92.08652493659075,2795.9999999999923,None
700,N1,100701,bridge,JOARIANALA CULVERT,21.4782130684357,92.0947151779329,7.2,A
701,N1,100702,link,Link,21.47686475901785,92.0957509145664,382.000000000005,None
702,N1,100703,bridge,JOARIANALA,21.4755164496,92.0967866511999,14.0,A
703,N1,100704,link,Link,21.4746805411793,92.09739961870335,237.99999999999955,None
704,N1,100705,bridge,JORIANALA,21.4738446327586,92.0980125862068,3.0,A
705,N1,100706,link,Link,21.4719500815478,92.09932640471385,528.9999999999964,None
706,N1,100707,bridge,JOARIANALA BAZAR PC GIDER BRIDGE(L),21.470055530337,92.1006402232209,57.6,A
707,N1,100708,link,Link,21.460306232736052,92.10005418323206,2669.999999999959,None
708,N1,100709,bridge,MITA CHARI BOX CULVERT,21.4505569351351,92.0994681432432,9.2,A
709,N1,100710,link,Link,21.44697174881755,92.1003680109073,841.0000000000082,None
710,N1,100711,bridge,RAMU HOSPITAL GATE,21.4433865625,92.1012678785714,1.5,A
711,N1,100712,link,Link,21.44261276696425,92.1009881178571,208.00000000002683,None
712,N1,100713,bridge,Mitacmari Ramu Bridge,21.4418389714285,92.1007083571428,58.6,A
713,N1,100714,link,Link,21.439519963330497,92.09953781476325,581.9999999999936,None
714,N1,100715,bridge,MARULA (WEST),21.4372009552325,92.0983672723837,3.0,A
715,N1,100716,link,Link,21.435704708824296,92.09781398954755,351.99999999997544,None
716,N1,100717,bridge,MARULA BOX CULVERT,21.4342084624161,92.0972607067114,2.5,A
717,N1,100718,link,Link,21.43250861090235,92.09668949942555,410.000000000025,None
718,N1,100719,bridge,RAMU BRAC OFFICE,21.4308087593886,92.0961182921397,7.2,A
719,N1,100720,link,Link,21.429824395517052,92.0957548391078,231.9999999999709,None
720,N1,100721,bridge,RAMU BY PASS MORE,21.4288400316455,92.0953913860759,3.5,A
721,N1,100722,link,Link,21.4285958144143,92.09473140641819,174.00000000003502,None
722,N1,100723,bridge,RAMU MOUR BOX CULVDERT,21.4283515971831,92.0940714267605,12.8,A
723,N1,100724,link,Link,21.42812379059155,92.09176112138024,483.0000000000041,None
724,N1,100725,bridge,ROMA CALLAGE BOX CULVERT,21.427895984,92.089450816,18.8,A
725,N1,100726,link,Link,21.42750118040575,92.08673831959419,573.9999999999554,None
726,N1,100727,bridge,ROMA TECHIPUL,21.4271063768115,92.0840258231884,8.2,A
727,N1,100728,link,Link,21.42694054504635,92.08223427995355,380.0000000000523,None
728,N1,100729,bridge,SAMBAR PUL CULVERT,21.4267747132812,92.0804427367187,7.4,A
729,N1,100730,link,Link,21.426623156640602,92.07860991835935,380.9999999999718,None
730,N1,100731,bridge,CHAKMARKOOL,21.4264716,92.0767771,12.4,A
731,N1,100732,link,Link,21.4269185249042,92.07383529042144,646.000000000015,None
732,N1,100733,bridge,CHAKMAR KOOL BOX CULVERT,21.4273654498084,92.0708934808429,9.4,A
733,N1,100734,link,Link,21.42727072375915,92.0671683350779,868.9999999999714,None
734,N1,100735,bridge,KHURUTIA BOX CULVERT,21.4271759977099,92.0634431893129,2.0,A
735,N1,100736,link,Link,21.42724246672565,92.0622544281165,258.0000000000382,None
736,N1,100737,bridge,KHURULIA CULVERT,21.4273089357414,92.0610656669201,6.8,A
737,N1,100738,link,Link,21.42757219398345,92.05951652648676,329.9999999999841,None
738,N1,100739,bridge,KHURULIA SCHOOL BOX CULVERT,21.4278354522255,92.0579673860534,16.6,A
739,N1,100740,link,Link,21.427946973526502,92.05559777880255,500.99999999997635,None
740,N1,100741,bridge,KHURULIA CHAIRMAN PARA BOX CULVERT,21.4280584948275,92.0532281715517,7.2,A
741,N1,100742,link,Link,21.42779149741375,92.05093819441515,472.00000000003683,None
742,N1,100743,bridge,Sarkarpara Bridge,21.4275245,92.0486482172786,13.0,A
743,N1,100744,link,Link,21.4284848551282,92.04651446825466,512.0000000000005,None
744,N1,100745,bridge,WEST DOVGE BOX CULVERT,21.4294452102564,92.0443807192307,10.9,A
745,N1,100746,link,Link,21.429616805128198,92.04198764441534,500.0,None
746,N1,100747,bridge,MUKTAR KUL,21.4297884,92.0395945696,9.2,A
747,N1,100748,link,Link,21.4295958814917,92.0357416593856,841.9999999999845,None
748,N1,100749,bridge,BAKKHALI BRIDGE,21.4294033629834,92.0318887491712,148.5,A
749,N1,100750,link,Link,21.429864573221,92.0307547238337,269.00000000000546,None
750,N1,100751,bridge,MOHURI RARA BOX,21.4303257834586,92.0296206984962,3.5,A
751,N1,100752,link,Link,21.430239852598852,92.02898209707415,144.00000000000546,None
752,N1,100753,bridge,RABAR DAM BOX,21.4301539217391,92.0283434956521,10.3,A
753,N1,100754,link,Link,21.42832627139155,92.02611345165965,615.0000000000091,None
754,N1,100755,bridge,LINK ROAD CULVERT,21.426498621044,92.0238834076672,9.0,A
755,N1,100756,link,Link,21.424780841278,92.02533568330095,610.99999999999,None
756,N1,100757,bridge,BESIC AREA,21.423063061512,92.0267879589347,4.5,C
757,N1,100758,link,Link,21.4228676147766,92.02704020549825,69.99999999999318,None
758,N1,100759,bridge,BASIC ARIA (1),21.4226721680412,92.0272924520618,11.3,C
759,N1,100760,link,Link,21.4210369757499,92.0294876790384,593.9999999999941,None
760,N1,100761,bridge,KAMBIR GONA,21.4194017834586,92.031682906015,2.4,C
761,N1,100762,link,Link,21.4182125131101,92.0332044895331,449.0000000000123,None
762,N1,100763,bridge,HAMBIR GONA (1),21.4170232427616,92.0347260730512,7.2,B
763,N1,100764,link,Link,21.4165700029742,92.03533089119591,170.99999999999227,None
764,N1,100765,bridge,HAMBIR GONA-(2),21.4161167631868,92.0359357093406,8.1,C
765,N1,100766,link,Link,21.415188347338052,92.037304697649,362.99999999999955,None
766,N1,100767,bridge,KANAR PARA,21.4142599314893,92.0386736859574,10.9,A
767,N1,100768,link,Link,21.413378387270498,92.03910026886425,368.99999999997135,None
768,N1,100769,bridge,SHORAR COOL,21.4124968430517,92.0395268517711,8.3,A
769,N1,100770,link,Link,21.4117498877835,92.04193240379965,357.00000000002774,None
770,N1,100771,bridge,SOUTH MITTA CHORI,21.4110029325153,92.0443379558282,8.3,B
771,N1,100772,link,Link,21.4106258946527,92.0461873186548,430.0000000000068,None
772,N1,100773,bridge,SOUTH MITHACHARI,21.4102488567901,92.0480366814814,2.2,B
773,N1,100774,link,Link,21.4100862703364,92.04996256253555,449.0000000000123,None
774,N1,100775,bridge,SOUTH MITTA CULVERT,21.4099236838827,92.0518884435897,1.9,A
775,N1,100776,link,Link,21.40814219910855,92.05496761104399,832.99999999997,None
776,N1,100777,bridge,SHAMMOTI PARA,21.4063607143344,92.0580467784983,10.0,D
777,N1,100778,link,Link,21.40525531574925,92.0599427411148,424.000000000035,None
778,N1,100779,bridge,CHALATOLI,21.4041499171641,92.0618387037313,1.6,A
779,N1,100780,link,Link,21.403079646004052,92.0632896644436,473.99999999998954,None
780,N1,100781,bridge,CHALIYATOLI,21.402009374844,92.0647406251559,3.6,A
781,N1,100782,link,Link,21.40109863704175,92.0654117713232,262.00000000000045,None
782,N1,100783,bridge,RAKALAN PARA STEEL BEAM AND RCC SLAB,21.4001878992395,92.0660829174905,8.0,C
783,N1,100784,link,Link,21.39948689847905,92.06630473498095,168.00000000000637,None
784,N1,100785,bridge,CHALIYA TOLI -2 ARCH MASONRY,21.3987858977186,92.0665265524714,1.3,C
785,N1,100786,link,Link,21.3969001602386,92.06705748313226,444.9999999999932,None
786,N1,100787,bridge,PANCHORI,21.3950144227586,92.0675884137931,8.3,A
787,N1,100788,link,Link,21.3929349667512,92.06803205730975,484.9999999999568,None
788,N1,100789,bridge,PANCHORA STEEL BEAM AND RCC SLAB,21.3908555107438,92.0684757008264,22.0,C
789,N1,100790,link,Link,21.3898303553719,92.0687190004132,237.0000000000232,None
790,N1,100791,bridge,PANAR CHORH -3 SLAB CULVERT,21.3888052,92.0689623,2.7,C
791,N1,100792,link,Link,21.38812952297295,92.06933929459456,168.00000000000637,None
792,N1,100793,bridge,PANCHARA SLAB CULVERT,21.3874538459459,92.0697162891891,2.7,B
793,N1,100794,link,Link,21.385930153894,92.07011931696294,367.999999999995,None
794,N1,100795,bridge,PANAR CHORA SLAB CULVERT,21.3844064618421,92.0705223447368,2.8,B
795,N1,100796,link,Link,21.383755772368403,92.0707016302631,156.99999999998226,None
796,N1,100797,bridge,PANCHORI SLAB CULVERT,21.3831050828947,92.0708809157894,1.8,B
797,N1,100798,link,Link,21.381361931391453,92.0707469771684,426.00000000004457,None
798,N1,100799,bridge,DALA -2 SLAB CULVERT,21.3796187798882,92.0706130385474,1.5,B
799,N1,100800,link,Link,21.3794657899441,92.0705522121308,39.99999999996362,None
800,N1,100801,bridge,DALA-2 SLAB CULVERT,21.3793128,92.0704913857142,1.5,A
801,N1,100802,link,Link,21.378581945779203,92.07042310487006,175.00000000001137,None
802,N1,100803,bridge,DALA-3 SLAB CULVERT,21.3778510915584,92.0703548240259,2.2,C
803,N1,100804,link,Link,21.3773696600649,92.07073857629865,148.00000000002456,None
804,N1,100805,bridge,DALA SLAB CULVERT,21.3768882285714,92.0711223285714,1.5,A
805,N1,100806,link,Link,21.37598664254655,92.07207531428566,308.9999999999691,None
806,N1,100807,bridge,DHALLA SLAB CULVERT,21.3750850565217,92.0730282999999,2.4,C
807,N1,100808,link,Link,21.374811145890902,92.07354490664736,149.99999999997726,None
808,N1,100809,bridge,PANAR CHORI SLAB CULVERT,21.3745372352601,92.0740615132948,1.3,A
809,N1,100810,link,Link,21.3744586271676,92.0744616274566,89.00000000005548,None
810,N1,100811,bridge,PANAR HORA SLAB CULVERT,21.3743800190751,92.0748617416184,1.3,A
811,N1,100812,link,Link,21.3740878889679,92.0757427015054,218.9999999999941,None
812,N1,100813,bridge,PANCR CHAR SLAB CULVERT,21.3737957588607,92.0766236613924,1.3,C
813,N1,100814,link,Link,21.3731063023561,92.07725837938615,216.99999999998454,None
814,N1,100815,bridge,TULA BAGAN SLAB CULVERT,21.3724168458515,92.0778930973799,1.3,C
815,N1,100816,link,Link,21.3715535583626,92.0784801880103,223.99999999998954,None
816,N1,100817,bridge,TULA BAGAN BOX CULVERT,21.3706902708737,92.0790672786407,1.3,A
817,N1,100818,link,Link,21.37021695490245,92.0793553805417,117.999999999995,None
818,N1,100819,bridge,TELA BAGAN SLAB CULVERT,21.3697436389312,92.0796434824427,1.3,A
819,N1,100820,link,Link,21.36919442900755,92.07984749083965,148.00000000002456,None
820,N1,100821,bridge,TULA BAGAN.,21.3686452190839,92.0800514992366,1.3,A
821,N1,100822,link,Link,21.36812223043745,92.08026008618546,142.99999999997226,None
822,N1,100823,bridge,PARARHORA CULVERT,21.367599241791,92.0804686731343,1.3,B
823,N1,100824,link,Link,21.3662630189087,92.08091520047441,333.00000000002683,None
824,N1,100825,bridge,TULA BAGUN,21.3649267960264,92.0813617278145,7.1,C
825,N1,100826,link,Link,21.3631136112141,92.080952910753,425.00000000001137,None
826,N1,100827,bridge,TOLA BAGAN,21.3613004264018,92.0805440936915,1.6,B
827,N1,100828,link,Link,21.36051410642515,92.0801733148364,197.00000000000273,None
828,N1,100829,bridge,NORTH-CONIAPARA,21.3597277864485,92.0798025359813,1.3,A
829,N1,100830,link,Link,21.3592368353971,92.0795710344626,122.99999999999045,None
830,N1,100831,bridge,NORTH CONIAPARA,21.3587458843457,92.0793395329439,2.2,C
831,N1,100832,link,Link,21.35750059337285,92.07921111647195,295.99999999999227,None
832,N1,100833,bridge,NORTH CONIA PARA BOX CULVERT,21.3562553024,92.0790827,4.0,A
833,N1,100834,link,Link,21.3531402488019,92.07875849676256,725.9999999999991,None
834,N1,100835,bridge,WEST CONIARA,21.3500251952038,92.0784342935251,21.5,A
835,N1,100836,link,Link,21.34767870348975,92.0787023165756,543.0000000000064,None
836,N1,100837,bridge,CONIA PARA,21.3453322117757,92.0789703396261,11.3,C
837,N1,100838,link,Link,21.343710764485948,92.0789121074766,373.9999999999668,None
838,N1,100839,bridge,KHONIA POLONG,21.3420893171962,92.0788538753271,14.1,A
839,N1,100840,link,Link,21.33796419718255,92.0789483699314,959.0000000000032,None
840,N1,100841,bridge,DOA PATONG,21.3338390771689,92.0790428645357,24.1,C
841,N1,100842,link,Link,21.33037839045415,92.08050686905915,956.0000000000173,None
842,N1,100843,bridge,JASOYA PALONG,21.3269177037394,92.0819708735826,45.6,C
843,N1,100844,link,Link,21.32535231481085,92.0838569259089,548.0000000000018,None
844,N1,100845,bridge,JASOYA PALONG RCC GIDER BRIDGE,21.3237869258823,92.0857429782352,5.0,C
845,N1,100846,link,Link,21.3224478541176,92.08731330676466,447.00000000000273,None
846,N1,100847,bridge,MORICHIA,21.3211087823529,92.0888836352941,11.2,D
847,N1,100848,link,Link,21.320845955123,92.0891901992494,87.99999999996544,None
848,N1,100849,bridge,Jasoya check post.,21.3205831278931,92.0894967632047,1.3,B
849,N1,100850,link,Link,21.3183963970461,92.0917280182082,727.0000000000323,None
850,N1,100851,bridge,MARIECHA BAZAR,21.3162096661991,92.0939592732117,49.3,C
851,N1,100852,link,Link,21.31221825481005,92.0956120523953,1045.9999999999923,None
852,N1,100853,bridge,MORICHIA PALONG,21.308226843421,92.0972648315789,2.4,B
853,N1,100854,link,Link,21.30398610270145,92.097371045339,1007.9999999999814,None
854,N1,100855,bridge,SHAPUR STEEL BEAM AND RCC SLAB,21.2997453619819,92.0974772590991,61.3,D
855,N1,100856,link,Link,21.29426008099095,92.09871611398935,1292.00000000003,None
856,N1,100857,bridge,SHAPUR,21.2887748,92.0999549688796,14.1,A
857,N1,100858,link,Link,21.288162425,92.10000868008295,137.9999999999768,None
858,N1,100859,bridge,COTBAZR MUSLIM HOS,21.28755005,92.1000623912863,11.0,B
859,N1,100860,link,Link,21.2856441407718,92.1003085130928,432.9999999999927,None
860,N1,100861,bridge,COURT BAZAR,21.2837382315436,92.1005546348993,10.3,A
861,N1,100862,link,Link,21.2788720112035,92.10248848993959,1172.0000000000255,None
862,N1,100863,bridge,RATNAPALANG,21.2740057908634,92.1044223449799,14.0,A
863,N1,100864,link,Link,21.27394898052205,92.10445045742969,14.000000000010004,None
864,N1,100865,bridge,CHADIRIKHANA,21.2738921701807,92.1044785698795,23.5,A
865,N1,100866,link,Link,21.270766721320953,92.1068157806368,883.9999999999577,None
866,N1,100867,bridge,EJILA,21.2676412724612,92.1091529913941,11.1,C
867,N1,100868,link,Link,21.2673874077452,92.10951252117036,94.00000000005093,None
868,N1,100869,bridge,HIZOLIA BRIDGE,21.2671335430292,92.1098720509466,50.6,C
869,N1,100870,link,Link,21.26635844543885,92.11096976419961,286.9999999999777,None
870,N1,100871,bridge,MODDO RAJAPALONG,21.2655833478485,92.1120674774526,11.5,C
871,N1,100872,link,Link,21.262815358819353,92.1155267825025,954.0000000000077,None
872,N1,100873,bridge,JADIMURA BRIDGE,21.2600473697902,92.1189860875524,6.6,C
873,N1,100874,link,Link,21.259335796223752,92.119852035944,240.99999999998545,None
874,N1,100875,bridge,JADI MORA (2) CULVERT,21.2586242226573,92.1207179843356,2.4,A
875,N1,100876,link,Link,21.2578396595429,92.1215672439535,249.00000000002365,None
876,N1,100877,bridge,JADIMORA (3),21.2570550964285,92.1224165035714,17.0,A
877,N1,100878,link,Link,21.25542894821425,92.12450679678571,572.9999999999791,None
878,N1,100879,bridge,WEST OGALA,21.2538028,92.12659709,11.1,C
879,N1,100880,link,Link,21.25212825,92.128673195,447.9999999999791,None
880,N1,100881,bridge,OKYIA STATION,21.2504537,92.1307493,8.5,C
881,N1,100882,link,Link,21.24970909359795,92.1317951956466,546.0000000000491,None
882,N1,100883,bridge,UKLIA-SHAHABMARKAT,21.2489644871959,92.1328410912932,2.4,C
883,N1,100884,link,Link,21.2473453732646,92.13507264931326,449.99999999998863,None
884,N1,100885,bridge,UKHIYA BAZAR,21.2457262593333,92.1373042073333,20.7,B
885,N1,100886,link,Link,21.23830236897355,92.14903067668645,3574.9999999999886,None
886,N1,100887,bridge,P. F PARA SLAB,21.2308784786138,92.1607571460396,2.0,A
887,N1,100888,link,Link,21.23009700594055,92.16105664554455,197.99999999997908,None
888,N1,100889,bridge,KUTUB PALONG,21.2293155332673,92.1613561450495,11.3,C
889,N1,100890,link,Link,21.2254177545124,92.1615297020702,923.0000000000018,None
890,N1,100891,bridge,KUTU - PALONG MOSZID SLAB,21.2215199757575,92.1617032590909,2.2,B
891,N1,100892,link,Link,21.22024002887875,92.16189050854544,304.00000000003047,None
892,N1,100893,bridge,KOSHO - BINNA - BRIDGE,21.218960082,92.162077758,10.9,C
893,N1,100894,link,Link,21.218168065125,92.162280874875,194.99999999999318,None
894,N1,100895,bridge,KASHO - BINNAI SLAB,21.21737604825,92.16248399175,2.1,C
895,N1,100896,link,Link,21.216693817194297,92.1630740740928,230.0000000000182,None
896,N1,100897,bridge,KATU PALLANG SLAB,21.2160115861386,92.1636641564356,2.0,A
897,N1,100898,link,Link,21.215473774701948,92.1646076797484,240.99999999998545,None
898,N1,100899,bridge,KUTUNG PALANG SLAB,21.2149359632653,92.1655512030612,1.8,A
899,N1,100900,link,Link,21.214683412244852,92.16597897397955,98.99999999998954,None
900,N1,100901,bridge,KOSUKONA,21.2144308612244,92.1664067448979,2.2,A
901,N1,100902,link,Link,21.210367794791303,92.16821238140415,1055.9999999999832,None
902,N1,100903,bridge,BALAKHALI TV CENTER,21.2063047283582,92.1700180179104,6.4,A
903,N1,100904,link,Link,21.205322857822352,92.17018737185839,240.0000000000091,None
904,N1,100905,bridge,BALUKHALI-2 SLAB,21.2043409872865,92.1703567258064,2.2,A
905,N1,100906,link,Link,21.2031540802656,92.17037869677415,278.00000000002,None
906,N1,100907,bridge,BALUKHALI KASTOM,21.2019671732447,92.1704006677419,3.1,A
907,N1,100908,link,Link,21.199799795914352,92.1704889661718,483.0000000000041,None
908,N1,100909,bridge,BALUKHALI OLD BUS STAND,21.197632418584,92.1705772646017,39.3,A
909,N1,100910,link,Link,21.196473974581252,92.1705423653587,296.9999999999686,None
910,N1,100911,bridge,BAKUHHALI KASHAMIA,21.1953155305785,92.1705074661157,3.0,A
911,N1,100912,link,Link,21.1930443147145,92.1692888930195,612.0000000000232,None
912,N1,100913,bridge,Batukhali Bridge,21.1907730988505,92.1680703199233,9.4,A
913,N1,100914,link,Link,21.1898325169307,92.16697383786101,324.0000000000123,None
914,N1,100915,bridge,Balukhali Boro Bridge,21.1888919350109,92.1658773557987,15.4,D
915,N1,100916,link,Link,21.1864331832422,92.16259000036,940.9999999999741,None
916,N1,100917,bridge,GOGU GONA,21.1839744314735,92.1593026449213,1.2,A
917,N1,100918,link,Link,21.181840571101553,92.1585668505722,528.9999999999964,None
918,N1,100919,bridge,THANGKHALI BOX CULVERT,21.1797067107296,92.1578310562231,3.1,C
919,N1,100920,link,Link,21.1785619337153,92.15743413378165,276.00000000001046,None
920,N1,100921,bridge,THANG KHALI BOX CULVERT,21.177417156701,92.1570372113402,3.1,B
921,N1,100922,link,Link,21.176418983288748,92.1566449124602,242.00000000001864,None
922,N1,100923,bridge,THANG KHALI BRIDGE,21.1754208098765,92.1562526135802,48.8,C
923,N1,100924,link,Link,21.1739518081297,92.15577332327945,351.99999999997544,None
924,N1,100925,bridge,Changkhali Bridge,21.1724828063829,92.1552940329787,9.4,A
925,N1,100926,link,Link,21.1714275782943,92.15501640476094,250.0,None
926,N1,100927,bridge,Changkhali Boro Bridge,21.1703723502057,92.1547387765432,21.5,A
927,N1,100928,link,Link,21.1695968570383,92.15420058633609,213.00000000002228,None
928,N1,100929,bridge,JAM TOLI BRIDGE,21.1688213638709,92.153662396129,9.4,B
929,N1,100930,link,Link,21.168527147389952,92.15340418897355,86.99999999998909,None
930,N1,100931,bridge,JAM TOLI BOX CULVERT,21.168232930909,92.1531459818181,3.0,A
931,N1,100932,link,Link,21.16744913956515,92.15274181521735,225.9999999999991,None
932,N1,100933,bridge,DAIM PARA BRIDGE,21.1666653482213,92.1523376486166,9.3,B
933,N1,100934,link,Link,21.1661189539525,92.15227292529639,130.9999999999718,None
934,N1,100935,bridge,DAIM PARA CULVERT,21.1655725596837,92.1522082019762,3.0,C
935,N1,100936,link,Link,21.162013017165748,92.1523638826782,821.0000000000264,None
936,N1,100937,bridge,PALONG KHALI CULVERT,21.1584534746478,92.1525195633802,3.0,C
937,N1,100938,link,Link,21.1554583769465,92.1529670750863,723.0000000000132,None
938,N1,100939,bridge,PALONG KHALI BAZAR (1),21.1524632792452,92.1534145867924,9.4,C
939,N1,100940,link,Link,21.151176964157898,92.15431510417685,365.99999999998545,None
940,N1,100941,bridge,PALONG KHALI BAZAR BRIDGE,21.1498906490706,92.1552156215613,15.2,C
941,N1,100942,link,Link,21.148829161709997,92.1561291233271,336.9999999999891,None
942,N1,100943,bridge,Palong Khali Bridge,21.1477676743494,92.1570426250929,57.6,A
943,N1,100944,link,Link,21.14515696459405,92.15823592061095,658.0000000000155,None
944,N1,100945,bridge,KARUN TOLI RCC GIDER BRIDGE,21.1425462548387,92.159429216129,3.3,B
945,N1,100946,link,Link,21.141705510503897,92.1599757222436,228.00000000000864,None
946,N1,100947,bridge,GIRA TALI RCC GIDER BRIDGE,21.1408647661691,92.1605222283582,15.4,C
947,N1,100948,link,Link,21.14053761061355,92.1610376616915,133.9999999999577,None
948,N1,100949,bridge,GIVATOLI RCC GIDER BRIDGE,21.140210455058,92.1615530950248,3.3,A
949,N1,100950,link,Link,21.1395488195688,92.1625955012437,271.000000000015,None
950,N1,100951,bridge,GIVA TOLI RCC GIDER BRIDGE,21.1388871840796,92.1636379074626,3.3,A
951,N1,100952,link,Link,21.1384768398846,92.1644178537313,196.00000000002638,None
952,N1,100953,bridge,GIVA TOLI BOX CULVERT,21.1380664956896,92.1651978,1.2,A
953,N1,100954,link,Link,21.13783947608905,92.16662825267176,305.9999999999832,None
954,N1,100955,bridge,Kata Khali Bridge,21.1376124564885,92.1680587053435,12.3,D
955,N1,100956,link,Link,21.13747375315195,92.16903495894479,206.00000000001728,None
956,N1,100957,bridge,ULI BANIA BOX CULVERT,21.1373350498154,92.1700112125461,1.2,C
957,N1,100958,link,Link,21.136973792876447,92.1722569961168,483.99999999998045,None
958,N1,100959,bridge,KHARA KANDI RCC GIDER BRIDGE,21.1366125359375,92.1745027796875,15.2,B
959,N1,100960,link,Link,21.136326916795,92.1752798867921,187.99999999998818,None
960,N1,100961,bridge,ULUBANIA RCC GIDER BRIDGE,21.1360412976525,92.1760569938967,4.8,A
961,N1,100962,link,Link,21.13547810672095,92.1769974772115,259.9999999999909,None
962,N1,100963,bridge,ULIBANIA BOX CULVERT,21.1349149157894,92.1779379605263,1.3,C
963,N1,100964,link,Link,21.13457685910925,92.17854833876515,167.00000000003,None
964,N1,100965,bridge,DMONIR GONA RCC GIDER BRIDGE,21.1342388024291,92.179158717004,3.3,A
965,N1,100966,link,Link,21.1330678448927,92.18192522660544,673.0000000000018,None
966,N1,100967,bridge,BALUR KHALI -(1) RCC GIDER BRIDGE,21.1318968873563,92.1846917362069,4.7,B
967,N1,100968,link,Link,21.13093530448895,92.18575379422956,325.999999999965,None
968,N1,100969,bridge,BALU KHALI -2 BOX CULVERT,21.1299737216216,92.1868158522522,1.2,C
969,N1,100970,link,Link,21.129870909909897,92.18693142672669,34.00000000004866,None
970,N1,100971,bridge,BALU KHALI-3 BOX CULVERT,21.1297680981982,92.1870470012012,7.9,B
971,N1,100972,link,Link,21.12938709009005,92.18747530660659,125.99999999997635,None
972,N1,100973,bridge,W HIME KANG BOX CULVERT,21.1290060819819,92.187903612012,1.2,A
973,N1,100974,link,Link,21.12866438423415,92.18828772717714,112.99999999999955,None
974,N1,100975,bridge,WHIKE KANG BOX CULVERT,21.1283226864864,92.1886718423423,1.2,A
975,N1,100976,link,Link,21.126713187605198,92.19001965618595,468.00000000001774,None
976,N1,100977,bridge,wheke kang (1),21.125103688724,92.1913674700296,6.4,A
977,N1,100978,link,Link,21.1244320913769,92.19176317904464,181.99999999995953,None
978,N1,100979,bridge,WHIKE KANG BRIDGE,21.1237604940298,92.1921588880597,3.35,A
979,N1,100980,link,Link,21.1233356509972,92.1924406188086,114.00000000003274,None
980,N1,100981,bridge,MOA EX-KANG-BAZAR,21.1229108079646,92.1927223495575,13.0,C
981,N1,100982,link,Link,21.12272276238935,92.19284145486719,50.99999999998772,None
982,N1,100983,bridge,HOA EX KANG BAZAE,21.1225347168141,92.1929605601769,3.2,A
983,N1,100984,link,Link,21.1220523042894,92.1932387630296,126.0000000000332,None
984,N1,100985,bridge,Hoacx Kang Barbar Bridge,21.1215698917647,92.1935169658823,72.6,B
985,N1,100986,link,Link,21.120015415053302,92.1949045974489,482.99999999994725,None
986,N1,100987,bridge,AMTULI BOX CULVERT,21.1184609383419,92.1962922290155,3.4,A
987,N1,100988,link,Link,21.11721764224785,92.19668336066155,312.0000000000118,None
988,N1,100989,bridge,TASSI-PARA BAR,21.1159743461538,92.1970744923076,2.8,A
989,N1,100990,link,Link,21.11526619787795,92.19754766193626,191.00000000003092,None
990,N1,100991,bridge,TAS SE BRIDGE HOANGK,21.1145580496021,92.1980208315649,12.8,B
991,N1,100992,link,Link,21.11322553224785,92.19930681684625,409.99999999996817,None
992,N1,100993,bridge,LAMBA-BIL PORA,21.1118930148936,92.2005928021276,1.2,A
993,N1,100994,link,Link,21.1113515828436,92.20134424820665,124.00000000002365,None
994,N1,100995,bridge,LAMBABIL MIDDLE PARA,21.1108101507936,92.2020956942857,1.2,A
995,N1,100996,link,Link,21.11034702063485,92.20273767142855,103.999999999985,None
996,N1,100997,bridge,LAMBABIL MIDDLE,21.1098838904761,92.2033796485714,1.2,A
997,N1,100998,link,Link,21.10932761733105,92.2041087591694,192.99999999998363,None
998,N1,100999,bridge,LAMBA - BIL - (1) BOX CULVERT,21.108771344186,92.2048378697674,2.8,A
999,N1,101000,link,Link,21.108543939534847,92.20508592558136,160.000000000025,None
1000,N1,101001,bridge,LAM BA BIL (2) BOX CULVERT,21.1083165348837,92.2053339813953,2.8,A
1001,N1,101002,link,Link,21.108074917441847,92.20572064297035,214.999999999975,None
1002,N1,101003,bridge,LAMBA BIL (3) BOX CULVERT,21.1078333,92.2061073045454,1.2,A
1003,N1,101004,link,Link,21.106563866666647,92.20675273227269,295.0000000000159,None
1004,N1,101005,bridge,LAMBA BIL BOX,21.1052944333333,92.20739816,1.2,C
1005,N1,101006,link,Link,21.10366200184105,92.20766880761624,396.000000000015,None
1006,N1,101007,bridge,UNCHI - PRANG BRIDGE,21.1020295703488,92.2079394552325,34.2,A
1007,N1,101008,link,Link,21.1013034924471,92.20825875307075,188.99999999996453,None
1008,N1,101009,bridge,ON SIFAPAING BOX CULVERT,21.1005774145454,92.208578050909,3.0,A
1009,N1,101010,link,Link,21.099724223062147,92.2091179833492,231.0000000000514,None
1010,N1,101011,bridge,UNCHING OPLONG CULVERT (1),21.0988710315789,92.2096579157894,1.2,A
1011,N1,101012,link,Link,21.096951148746797,92.21055900664155,478.999999999985,None
1012,N1,101013,bridge,KUTUB DIA PARA (1) CULVERT,21.0950312659147,92.2114600974937,2.7,A
1013,N1,101014,link,Link,21.09473824072675,92.21156818020046,69.00000000001683,None
1014,N1,101015,bridge,KUTUB DIA PARA CULVERT,21.0944452155388,92.2116762629072,2.7,A
1015,N1,101016,link,Link,21.093413973275702,92.21199370518775,243.99999999997135,None
1016,N1,101017,bridge,KUTUB - DIA PARA (3),21.0923827310126,92.2123111474683,4.2,A
1017,N1,101018,link,Link,21.09145437742115,92.2125978688405,221.00000000000364,None
1018,N1,101019,bridge,KANGOR PARA,21.0905260238297,92.2128845902127,2.7,A
1019,N1,101020,link,Link,21.089696528966847,92.21329007863235,209.00000000000318,None
1020,N1,101021,bridge,KANGOR PARA MOZGID,21.088867034104,92.213695567052,1.2,A
1021,N1,101022,link,Link,21.08791309190745,92.21426597095375,245.00000000000455,None
1022,N1,101023,bridge,KHAN GIOR PARA (1),21.0869591497109,92.2148363748555,2.8,A
1023,N1,101024,link,Link,21.08672942485545,92.21497373742775,58.99999999996908,None
1024,N1,101025,bridge,KHANGOR PRAMARY (2),21.0864997,92.2151111,1.2,A
1025,N1,101026,link,Link,21.08545610197625,92.21551547272725,254.0000000000191,None
1026,N1,101027,bridge,Khan Gor Para Bridge,21.0844125039525,92.2159198454545,14.0,A
1027,N1,101028,link,Link,21.0833272249492,92.2162605315861,262.9999999999768,None
1028,N1,101029,bridge,RHANCHOR PARA BOX CULVERT,21.0822419459459,92.2166012177177,1.2,A
1029,N1,101030,link,Link,21.081342465830048,92.2170026445731,224.00000000004638,None
1030,N1,101031,bridge,KHANCHOR PARA (2),21.0804429857142,92.2174040714285,1.0,A
1031,N1,101032,link,Link,21.079833665845598,92.21776368322381,161.00000000000136,None
1032,N1,101033,bridge,KHANCHOR PARA- BOX CULVERT,21.079224345977,92.2181232950191,1.0,A
1033,N1,101034,link,Link,21.0782534554885,92.2190266821249,298.0000000000018,None
1034,N1,101035,bridge,NOYA PARA (1) BOX CULVERT,21.077282565,92.2199300692307,3.0,A
1035,N1,101036,link,Link,21.07573017496575,92.2210895068756,448.99999999995543,None
1036,N1,101037,bridge,NAYAPARA,21.0741777849315,92.2222489445205,5.8,A
1037,N1,101038,link,Link,21.07333536581735,92.22288087665585,258.0000000000382,None
1038,N1,101039,bridge,NOYA PARA,21.0724929467032,92.2235128087912,1.3,A
1039,N1,101040,link,Link,21.0718624111721,92.22390258869045,181.99999999995953,None
1040,N1,101041,bridge,GIMON KHALI BRIDGE,21.071231875641,92.2242923685897,5.8,B
1041,N1,101042,link,Link,21.07038410448715,92.22443056762815,207.00000000005048,None
1042,N1,101043,bridge,GIM - MOGARI BRIDGE,21.0695363333333,92.2245687666666,7.5,C
1043,N1,101044,link,Link,21.06728809080455,92.22455165823749,527.9999999999632,None
1044,N1,101045,bridge,NINA BAZAR BOX CULVERT,21.0650398482758,92.2245345498084,1.2,A
1045,N1,101046,link,Link,21.06245675502025,92.22545837956105,639.9999999999864,None
1046,N1,101047,bridge,NOYA BAZAR BRIDGE,21.0598736617647,92.2263822093137,30.9,B
1047,N1,101048,link,Link,21.058931712461252,92.22644562746385,212.00000000004593,None
1048,N1,101049,bridge,NOYA BAZAR CULVERT,21.0579897631578,92.226509045614,1.2,C
1049,N1,101050,link,Link,21.057142057937547,92.22657716438304,188.99999999996453,None
1050,N1,101051,bridge,NAYA BAZAR BRIDGE,21.0562943527173,92.2266452831521,9.4,B
1051,N1,101052,link,Link,21.05411750598825,92.2281708891069,694.9999999999932,None
1052,N1,101053,bridge,KHARANG KHALI - BOX CUVERT (1),21.0519406592592,92.2296964950617,2.8,C
1053,N1,101054,link,Link,21.051394632804197,92.23160481604936,477.0000000000323,None
1054,N1,101055,bridge,KHARANG KHAIL,21.0508486063492,92.233513137037,1.2,C
1055,N1,101056,link,Link,21.048654227190298,92.2343168882035,544.9999999999591,None
1056,N1,101057,bridge,MOULIVI BAZAR FISHARI BRIDGE,21.0464598480314,92.23512063937,31.7,C
1057,N1,101058,link,Link,21.0443625246454,92.2359379228336,501.0000000000332,None
1058,N1,101059,bridge,MOULOVI BAZAR BOX CULVERT (1),21.0422652012594,92.2367552062972,1.2,C
1059,N1,101060,link,Link,21.041353026370402,92.23720466351895,228.00000000000864,None
1060,N1,101061,bridge,MOULOVI BAZAR BOX CULVERT,21.0404408514814,92.2376541207407,1.2,C
1061,N1,101062,link,Link,21.039042905555497,92.23835307777776,343.9999999999941,None
1062,N1,101063,bridge,ALI AXBAR PARA BOX CULVERT,21.0376449596296,92.2390520348148,6.2,A
1063,N1,101064,link,Link,21.035837902693,92.23987920338524,449.0000000000123,None
1064,N1,101065,bridge,NILA - HOAB RABG BRIDGE,21.0340308457564,92.2407063719557,32.1,B
1065,N1,101066,link,Link,21.03099265691775,92.24114609826594,695.9999999999695,None
1066,N1,101067,bridge,NILLA BOX CULVERT (1),21.0279544680791,92.2415858245762,4.4,A
1067,N1,101068,link,Link,21.0268071699247,92.2416949972163,252.9999999999859,None
1068,N1,101069,bridge,NILA. BARAR BOX CULVERT,21.0256598717703,92.2418041698564,2.9,A
1069,N1,101070,link,Link,21.022734309438853,92.24230909877114,689.0000000000214,None
1070,N1,101071,bridge,NILA - DORGA- PARA-(1) BOX,21.0198087471074,92.2428140276859,2.8,A
1071,N1,101072,link,Link,21.018575251573,92.24332625200715,307.9999999999927,None
1072,N1,101073,bridge,NILA DOGA PARA BOX CULVERT,21.0173417560386,92.2438384763284,2.8,A
1073,N1,101074,link,Link,21.016635395206798,92.2442975881642,187.00000000001182,None
1074,N1,101075,bridge,NAT MURA PARA BOX CULVERT,21.015929034375,92.2447567,1.9,A
1075,N1,101076,link,Link,21.0128488406052,92.2471472120253,862.9999999999995,None
1076,N1,101077,bridge,CHOUDORIY PARA RCC GIDER BRIDGE,21.0097686468354,92.2495377240506,45.6,B
1077,N1,101078,link,Link,21.0077969715309,92.25090878148279,540.0000000000205,None
1078,N1,101079,bridge,RONGI HALI BOX CULVERT,21.0058252962264,92.252279838915,2.8,B
1079,N1,101080,link,Link,21.002615596427802,92.2530006327159,750.9999999999764,None
1080,N1,101081,bridge,RONGI- KHALI RCC GIDER BRIDGE,20.9994058966292,92.2537214265168,12.5,C
1081,N1,101082,link,Link,20.9943820795814,92.25414632963304,1163.000000000011,None
1082,N1,101083,bridge,ALA KHALI KUNA PARA,20.9893582625336,92.2545712327493,29.9,C
1083,N1,101084,link,Link,20.98534499073985,92.2533423579105,956.9999999999936,None
1084,N1,101085,bridge,LADA BAZAR BOX CULVERT,20.9813317189461,92.2521134830717,1.2,C
1085,N1,101086,link,Link,20.98017984815015,92.2516681649663,274.99999999997726,None
1086,N1,101087,bridge,Ladapara Bridge,20.9790279773542,92.2512228468609,36.6,A
1087,N1,101088,link,Link,20.97748259947845,92.25060635618306,374.00000000002365,None
1088,N1,101089,bridge,NAYAPARA BOX CULVERT,20.9759372216027,92.2499898655052,2.8,A
1089,N1,101090,link,Link,20.97460769930305,92.24968299036,317.0000000000073,None
1090,N1,101091,bridge,NOYAPARA RCC GIDER BRIDGE,20.9732781770034,92.2493761152148,30.4,B
1091,N1,101092,link,Link,20.971217629881,92.2490145081821,491.9999999999618,None
1092,N1,101093,bridge,NAYA PARA BOX CULVERT,20.9691570827586,92.2486529011494,1.2,A
1093,N1,101094,link,Link,20.9685052489423,92.24881249805365,161.00000000000136,None
1094,N1,101095,bridge,MOSINNI RCC GIDER BRIDGE,20.967853415126,92.2489720949579,8.8,B
1095,N1,101096,link,Link,20.9667110050407,92.2499222439181,337.00000000004593,None
1096,N1,101097,bridge,NOYA PARA CULVERT,20.9655685949554,92.2508723928783,1.2,A
1097,N1,101098,link,Link,20.9634958697991,92.2520631928677,534.9999999999682,None
1098,N1,101099,bridge,Noya Para Bridge,20.9614231446428,92.2532539928571,9.2,A
1099,N1,101100,link,Link,20.960684070003502,92.25348636596495,175.00000000001137,None
1100,N1,101101,bridge,JADIMURA (NOYA PARA)BRIDGE,20.9599449953642,92.2537187390728,41.75,B
1101,N1,101102,link,Link,20.95852250415265,92.25418569894815,338.0000000000223,None
1102,N1,101103,bridge,JADIMORH BOX CULVERT,20.9571000129411,92.2546526588235,1.2,A
1103,N1,101104,link,Link,20.953122572606,92.25653677343564,1007.000000000005,None
1104,N1,101105,bridge,Umor khali Bridge,20.9491451322709,92.2584208880478,35.5,A
1105,N1,101106,link,Link,20.9486494096137,92.2588421081543,152.99999999996317,None
1106,N1,101107,bridge,DONDO MIA BOX CULVERT,20.9481536869565,92.2592633282608,1.5,A
1107,N1,101108,link,Link,20.9470022397349,92.25979831413039,343.9999999999941,None
1108,N1,101109,bridge,DOMMO MIA BOX CULVERT,20.9458507925133,92.2603333,1.2,A
1109,N1,101110,link,Link,20.9443196576928,92.260465056117,384.9999999999909,None
1110,N1,101111,bridge,DHANDO MIA,20.9427885228723,92.260596812234,38.6,C
1111,N1,101112,link,Link,20.940046891436147,92.26148589111699,656.0000000000059,None
1112,N1,101113,bridge,DONDO MIA CHAK POST BRIDGE,20.93730526,92.26237497,51.0,B
1113,N1,101114,link,Link,20.93486564597935,92.262994185,576.9999999999982,None
1114,N1,101115,bridge,Domodia Bridge(1),20.9324260319587,92.2636134,13.5,A
1115,N1,101116,link,Link,20.93215090219065,92.26366301249999,63.00000000004502,None
1116,N1,101117,bridge,Domdomia Bridge(2),20.9318757724226,92.263712625,13.5,A
1117,N1,101118,link,Link,20.931137725901998,92.26384571249994,168.99999999998272,None
1118,N1,101119,bridge,DONDOMIA,20.9303996793814,92.2639787999999,2.7,A
1119,N1,101120,link,Link,20.9292685334407,92.26413999843746,257.000000000005,None
1120,N1,101121,bridge,DONOMIA,20.9281373875,92.264301196875,34.8,C
1121,N1,101122,link,Link,20.92676320779195,92.26462317770255,322.00000000000273,None
1122,N1,101123,bridge,DONMIA,20.9253890280839,92.2649451585301,2.7,D
1123,N1,101124,link,Link,20.9231583368721,92.2661989832273,577.9999999999745,None
1124,N1,101125,bridge,KARUMTOLI,20.9209276456603,92.2674528079245,37.6,B
1125,N1,101126,link,Link,20.9199079228301,92.26808022896225,269.00000000000546,None
1126,N1,101127,bridge,KARUNTON BOX CULVERT,20.9188881999999,92.26870765,1.2,A
1127,N1,101128,link,Link,20.91844216999995,92.26890427214285,110.99999999999,None
1128,N1,101129,bridge,Karumtoli choto(1) Bridge,20.91799614,92.2691008942857,6.0,A
1129,N1,101130,link,Link,20.917351319019602,92.26947901871145,168.00000000000637,None
1130,N1,101131,bridge,SHOLO BANDOR TAKNAF,20.9167064980392,92.2698571431372,6.0,A
1131,N1,101132,link,Link,20.91603861022645,92.27029055691341,175.00000000001137,None
1132,N1,101133,bridge,KAKUM TOLI CHACK BOX CULVERT,20.9153707224137,92.2707239706896,1.2,B
1133,N1,101134,link,Link,20.91500290172405,92.27096533620684,96.00000000000364,None
1134,N1,101135,bridge,KARUMTOLI (3)BOX CULVERT,20.9146350810344,92.2712067017241,2.8,A
1135,N1,101136,link,Link,20.913129689844553,92.27227455131045,437.0000000000118,None
1136,N1,101137,bridge,KARUM TOLI BOX CULVERT,20.9116242986547,92.2733424008968,1.3,A
1137,N1,101138,link,Link,20.910540602466348,92.27406486502235,289.9999999999636,None
1138,N1,101139,bridge,Polashir Bridge,20.909456906278,92.2747873291479,10.6,A
1139,N1,101140,link,Link,20.9087445170045,92.275238957221,192.00000000000728,None
1140,N1,101141,bridge,BAROY TOLI RCC GIDER BRIDGE,20.908032127731,92.2756905852941,30.0,A
1141,N1,101142,link,Link,20.907740045378098,92.2758748191176,76.99999999999818,None
1142,N1,101143,bridge,BORY TOLI SLAB CULVERT,20.9074479630252,92.2760590529411,2.8,A
1143,N1,101144,link,Link,20.9067125554963,92.2765723057388,210.00000000003638,None
1144,N1,101145,bridge,BORYTOLI SLAB CULVERT,20.9059771479674,92.2770855585365,2.8,A
1145,N1,101146,link,Link,20.90564114247685,92.27732972721344,88.99999999999864,None
1146,N1,101147,bridge,BARITOLI BOX CULVERT,20.9053051369863,92.2775738958904,2.8,A
1147,N1,101148,link,Link,20.90493849607045,92.27782536701736,99.9999999999659,None
1148,N1,101149,bridge,Gilatoli (1) Bridge,20.9045718551546,92.2780768381443,17.5,A
1149,N1,101150,link,Link,20.90413155953605,92.27838503556694,122.99999999999045,None
1150,N1,101151,bridge,Baroytoli Bridge,20.9036912639175,92.2786932329896,8.3,A
1151,N1,101152,link,Link,20.90344701885195,92.278868945621,72.00000000000273,None
1152,N1,101153,bridge,Baraytoli (3) Bridge,20.9032027737864,92.2790446582524,6.1,A
1153,N1,101154,link,Link,20.902543853291903,92.2794591239815,189.99999999999773,None
1154,N1,101155,bridge,Naiton Para(1) Bridge,20.9018849327974,92.2798735897106,23.0,A
1155,N1,101156,link,Link,20.89949189354155,92.2824671781886,816.0000000000309,None
1156,N1,101157,bridge,Naitom Para (2) Bridge,20.8970988542857,92.2850607666666,15.1,A
1157,N1,101158,link,Link,20.896094234285698,92.286506572619,385.99999999996726,None
1158,N1,101159,bridge,Naitong Para (3) Bridge,20.8950896142857,92.2879523785714,9.0,A
1159,N1,101160,link,Link,20.89368036416035,92.28946820595235,462.00000000004593,None
1160,N1,101161,bridge,Naitom Para(4) Bridge,20.892271114035,92.2909840333333,9.0,A
1161,N1,101162,link,Link,20.891214783297798,92.29335105669361,585.9999999999559,None
1162,N1,101163,bridge,TEKNAF NAITANG RCC GIDER BRIDGE,20.8901584525606,92.2957180800539,37.3,B
1163,N1,101164,link,Link,20.8873625883056,92.2972169845417,882.000000000005,None
1164,N1,101165,bridge,BUS STAND TEKNAF BOX CULVERT,20.8845667240506,92.2987158890295,1.5,A
1165,N1,101166,link,Link,20.8827759735102,92.29824664451475,432.00000000001637,None
1166,N1,101167,bridge,YAKNAT BRIDGE,20.8809852229698,92.2977774,35.9,C
1167,N1,101168,sink,"End of Road at Shapla Chattar ,Teknaf Meet with Z1098 &Z1099.",20.8629167,92.298083,0.0,None
